datetime,city,state,country,shape,duration_s,comments,latitude,longitude
10/10/1949 20:30,san marcos,tx,us,cylinder,2700,This event took place in early fall around 1949-50. It occurred after a Boy Scout meeting in the Baptist Church. The Baptist Church sit,29.883055600000006,-97.94111109999999
10/10/1949 21:00,lackland afb,tx,,light,7200,1949 Lackland AFB&#44 TX.  Lights racing across the sky &amp; making 90 degree turns on a dime.,29.384209999999996,-98.581082
10/10/1955 17:00,chester (uk/england),,gb,circle,20,Green/Orange circular disc over Chester&#44 England,53.2,-2.916667
10/10/1956 21:00,edna,tx,us,circle,20,My older brother and twin sister were leaving the only Edna theater at about 9 PM&#44...we had our bikes and I took a different route home,28.9783333,-96.64583329999999
10/10/1960 20:00,kaneohe,hi,us,light,900,AS a Marine 1st Lt. flying an FJ4B fighter/attack aircraft on a solo night exercise&#44 I was at 50&#44000&#39 in a &quot;clean&quot; aircraft (no ordinan,21.418055600000002,-157.8036111
10/10/1961 19:00,bristol,tn,us,sphere,300,My father is now 89 my brother 52 the girl with us now 51 myself 49 and the other fellow which worked with my father if he&#39s still livi,36595,-82.18888890000001
10/10/1965 21:00,penarth (uk/wales),,gb,circle,180,penarth uk  circle  3mins  stayed 30ft above me for 3 mins slowly moved of and then with the blink of the eye the speed was unreal,51.434722,-3.18
10/10/1965 23:45,norwalk,ct,us,disk,1200,A bright orange color changing to reddish color disk/saucer was observed hovering above power transmission lines.,41.1175,-73.4083333
10/10/1966 20:00,pell city,al,us,disk,180,Strobe Lighted disk shape object observed close&#44 at low speeds&#44 and low altitude in Oct 1966 in Pell City Alabama,33.586111100000004,-86.28611109999999
10/10/1966 21:00,live oak,fl,us,disk,120,Saucer zaps energy from powerline as my pregnant mother receives mental signals not to pass info,30.294722200000002,-82.9841667
10/10/1968 13:00,hawthorne,ca,us,circle,300,ROUND &#44 ORANGE &#44 WITH WHAT I WOULD SAY WAS POLISHED METAL OF SOME KIND AROUND THE EDGES .,33.916388899999994,-118.35166670000001
10/10/1968 19:00,brevard,nc,us,fireball,180,silent red /orange mass of energy floated by three of us in western North Carolina in the 60s,35.2333333,-82.7344444
10/10/1970 16:00,bellmore,ny,us,disk,1800,silver disc seen by family and neighbors,40.66861110000001,-73.5275
10/10/1970 19:00,manchester,ky,us,unknown,180,Slow moving&#44 silent craft accelerated at an unbelievable angle and speed.,37.153611100000006,-83.7619444
10/10/1971 21:00,lexington,nc,us,oval,30,green oval shaped light over my local church&#44power lines down..,35.8238889,-80.25361109999999
10/10/1972 19:00,harlan county,ky,us,circle,1200,On october 10&#44 1972 myself&#44my 5yrs.daughter&#442 neices and 2 nephews were playing tag in the back yard .When we looked over on the ridge,36.84305560000001,-83.3219444
10/10/1972 22:30,west bloomfield,mi,us,disk,120,The UFO was so close&#44 my battery in the car went to zero amps&#44 stalling the engine&#44 turning off my lights and radio.,42.5377778,-83.2330556
10/10/1973 19:00,niantic,ct,us,disk,1800,Oh&#44 what a night &#33  Two (2) saucer-shaped&#44 glowing green objects and one (1) brilliantly glowing sphere gliding over the lake.,41.3252778,-72.1936111
10/10/1973 23:00,bermuda nas,,,light,20,saw fast moving blip on the radar scope thin went outside and saw it again.,32.364167,-64.678611
10/10/1974 17:00,willow beach,az,,light,120,The object was a brillant white light standing out against the bright arizona sky,0.0,0.0
10/10/1974 19:30,hudson,ma,us,other,2700,Not sure of the eact month or year of this sighting but it was in the fall of 74 or 75. Was walking home around dusk and saw a bright l,42.3916667,-71.5666667
10/10/1974 21:30,cardiff (uk/wales),,gb,disk,1200,back in 1974 I was 19 at the time and  lived in a suburb of Cardiff Wales UK called Ely&#44 and in the distance there was a wood called Ca,51.5,-3.2
10/10/1974 23:00,hudson,ks,us,light,1200,The light chased us.,38.1055556,-98.6597222
10/10/1975 17:00,north charleston,sc,us,light,360,Several Flashing UFO lights over Charleston Naval Base in S.C.,32.8544444,-79975
10/10/1976 20:30,washougal,wa,us,oval,60,Three extremely large lights hanging above nearby trees.,45.5827778,-122.3522222
10/10/1976 22:00,stoke mandeville (uk/england),,gb,cigar,3,White object over Buckinghamshire UK.,51.783333,-0.783333
10/10/1977 12:00,san antonio,tx,us,other,30,i was about six or seven and my family and me were sitting next to a window at home eating when a type of dark ball hit the screen wind,29.423888899999998,-98.4933333
10/10/1977 22:00,louisville,ky,us,light,30,HBCCUFO CANADIAN REPORT:  Pilot Sighting Of Unusual Light.,38.2541667,-85.7594444
10/10/1978 02:00,elmont,ny,us,rectangle,300,A memory I will never forget that happened meny years ago.,40.7008333,-73.7133333
10/10/1979 00:00,poughkeepsie,ny,us,chevron,900,1/4 moon-like&#44  its &#39chord&#39 or flat side parallel to horizon&#44  bright orange-red glow&#44  completely silent&#44 no features.,41.7002778,-73.92138890000001
10/10/1979 22:00,saddle lake (canada),ab,,triangle,270,Lights far above&#44  that glance; then flee from the celestrialhavens&#44 only to appear again.,53.970571,-111.689885
10/10/1979 22:00,san diego,ca,us,oval,180,My 2nd UFO sighting&#44 October 1979,32.7152778,-117.1563889
10/10/1979 22:00,security,co,us,unknown,1800,very low clouds all different colors&#44search lights were seen shining down out of the clouds on the houses and streets. this event was s,38.7583333,-104.7425
10/10/1980 19:00,houston,tx,us,sphere,180,Sphere&#44 No lights&#44  moving through neighborhoods above tree tops&#44 over busy streets in Houston in 1980.,29.763055600000005,-95.3630556
10/10/1980 22:00,dallas,tx,us,unknown,300,Strange shape shifting craft of pure light energy.,32.783333299999995,-96.8
10/10/1980 23:30,manchester,nh,us,light,300,A red glowing sphere stopped and watched me.,42.9955556,-71.45527779999999
10/10/1982 07:00,gisborne (new zealand),,,disk,120,gisborne nz 1982 wainui beach to sponge bay,-38.662334,178.017649
10/10/1984 05:00,houston,tx,us,circle,60,2 experience with unkown,29.763055600000005,-95.3630556
10/10/1984 12:00,traverse city,mi,us,other,120,translucent football seen over city airport,44.7630556,-85.6205556
10/10/1984 22:00,white plains,ny,us,formation,20,Saw a hugh object in sky with lights intermittently placed not making any noise traveling north in the night sky.It had no real identif,41.033888899999994,-73.7633333
10/10/1985 20:25,leeds (uk/england),,gb,triangle,600,three light in the sky that led to a big black silent triangle shaped craft.,53.8,-1.583333
10/10/1986 20:00,holmes/pawling,ny,,chevron,180,Football Field Sized Chevron with bright white lights on front&#44 moving slowly with absolutely no sound,41.523427000000005,-73.646795
10/10/1987 20:00,manilla (rr#1) (canada),on,,disk,600,We could clearly see the craft and observed in detail it&#39s structure&#44no sound was made by it and the lights that were flashing were not,0.0,0.0
10/10/1988 18:00,milwaukee,wi,us,triangle,600,A silent black triangular object with no lights moved over us as we walked our dog across a school playground.,43.038888899999996,-87.90638890000001
10/10/1988 21:00,new gloucester,me,us,unknown,120,I&#39m still afraid to look at the sky at night.,43.9627778,-70.2830556
10/10/1988 22:00,boulder,co,us,light,60,Three Stars Begin to Move Randomly&#44 Stop&#44 Change Direction&#44 Move Again&#44 And Then Vanish,40015,-105.27
10/10/1988 22:45,seattle (ballard area),wa,us,unknown,2,Two adult witnesses are stunned by the sound of an object that streaks above the home they are in.,47.6063889,-122.33083329999998
10/10/1989 00:00,calabasas,ca,us,disk,300,Unidentified object on Mulholland Highway.,34.1577778,-118.6375
10/10/1989 21:00,centralia,wa,us,triangle,60,A huge triangularly shaped silent object that blotted out 25 degrees of the sky&#44 lighted by four glowing points.,46.7163889,-122.95305559999998
10/10/1989 21:00,kranklin,ky,,triangle,180,Triangle seen in franklin Ky - october 1989,36.722263,-86.577218
10/10/1990 20:00,pense (canada),sa,,unknown,180,i saw something one rainy night&#44 and i&#39ll never forget it as long as i live.,0.0,0.0
10/10/1990 21:00,ashburn,ga,us,triangle,120,Translucent Craft that makes No Sound While Moving,31.7058333,-83.6533333
10/10/1991 22:00,frisco,nc,us,unknown,1800,A friend and myself were standing on the shore of the Pamlico sound as we observed 4 objects moving in up and down motions for about 30,35235,-75.6288889
10/10/1991 22:00,harrisburg,pa,us,triangle,600,We observed 3 triangular shaped high speed objects&#33,40.273611100000004,-76.88472220000001
10/10/1992 17:00,panama city,fl,us,formation,3600,During a road trip to Panama City a friend and I witnessed a pair of luminous light formations appear and dissappear over the Gulf.,30.1586111,-85.66027779999999
10/10/1992 18:00,stafford,tx,us,unknown,10,A man emerges from a beam of light that shines on a grassy field at night and he runs towards the Texas Instruments parking lot.,29.6158333,-95.5575
10/10/1992 20:15,seymour,tn,us,cigar,60,Stationary Elongated UFO 200ft above vacant field with city lights on bottom,35.890555600000006,-83.7247222
10/10/1992 22:00,weatherford,tx,us,unknown,30,Black or dark grey.  Too big&#44 too low&#44 too slow&#44 too quiet&#44 for a normal aircraft.,32.7591667,-97.7969444
10/10/1993 03:00,zlatoust (russia),,,sphere,1200,I woke up at night and looked out the window near my bed. There was a huge sphere of shining light in front of our nine floor apartment,55.183333,59.65
10/10/1993 22:00,peoria,il,us,light,8,Light over Peoria&#44 IL that moves slowly&#44 stops in mid-air&#44 hovers&#44 changes colors&#44 shoots in opposite direction and disappears.,40.693611100000005,-89.58888890000001
10/10/1993 23:00,carthage,tn,us,other,60,1 object with green and red lights,36.2522222,-85.9516667
10/10/1994 15:00,mercedies,tx,,cigar,3600,ufo chased by fighter jet over Rio Grande Valley. Seen on news,26.149798,-97.913611
10/10/1994 18:30,burnt hills,ny,us,rectangle,120,Giant rectangular craft (resembling an upside-down aircraft carrier) over highway near Saratoga&#44 NY.,42.9097222,-73.8955556
10/10/1994 22:00,pinebergen,ar,us,light,5,Round&#44 bright&#44 low flying object silently speeds West of Arkansas town at 11:30pm&#44 10/10/94.,34.1027778,-91.9922222
10/10/1994 23:00,toronto (greater toronto area) (canada),on,ca,sphere,3600,Large rusty sphere,43.666667,-79.416667
10/10/1995 17:05,puerto rico (puerto rico),pr,,,0,Woman calls regarding fiance who is having peculiar &quot;flash back&quot; recall of alien type creatures.  Directed to investigator.,18.220833,-66.590149
10/10/1995 19:45,milwaukee,wi,us,,120,Man  on Hwy 43 SW of Milwaukee sees large&#44 bright blue light streak by his car&#44 descend&#44 turn&#44 cross road ahead&#44 strobe. Bizarre&#33,43.038888899999996,-87.90638890000001
10/10/1995 22:40,oakland,ca,us,,60,Woman repts.  bright light in NW sky&#44 suddenly approaches her&#44 flies slowly overhead.  Swept wings&#44 2 blurry lights either side.,37.804444399999994,-122.2697222
10/10/1996 03:20,higginsville,mo,us,triangle,3,illuminated triangular craft&#44 flying at high speed from South to North,39.0725,-93.7169444
10/10/1996 20:00,lake macquarie (nsw&#44 australia),,,light,300,RED LIGHT WITH OTHER RED FLASHING LIGHT&#44 ONE OBJECT,-33.093373,151.58898200000002
10/10/1996 22:00,charleston,sc,us,light,300,Flashing object above Charleston&#44 SC,32.77638889999999,-79.9311111
10/10/1996 22:30,monroe county,oh,us,cylinder,60,Looked like it went through the hillside,39.4402778,-84.3622222
10/10/1997 16:00,connersville,in,us,delta,14400,3 differants types &#44 cluster &#44delta &#44 and one in a 3 pointed star design . followed it for six miles .,39.6411111,-85.14111109999999
10/10/1997 17:00,mesa,az,us,sphere,30,A small dark purple quad-thruster craft hovering 200-300 feet in the sky. 500 Lights On Object0: Yes,33.4222222,-111.8219444
10/10/1997 20:00,bonaire,ga,us,triangle,300,Triangular Object Sighted at Very Close Range,32.54361110000001,-83.59611109999999
10/10/1997 21:00,austin,mn,us,other,3600,i was traveling northbound on state highway 105 approximately 8 miles south of Austin MN when an object came down directly above my car,43.6666667,-92.9744444
10/10/1998 02:00,turin (italy),,,disk,15,We were doing a patrol during the night&#44me and my friend were on guard duty in a military camp wich was a big field in the middle of a,0.0,0.0
10/10/1998 02:30,hollywood,ca,us,changing,300,I was standing outside on Sunset Blvd. at Vine and looked straight up which I normally do not do. I saw three bright white lights in a,34.0983333,-118.32583329999999
10/10/1998 03:30,phoenix (north part),az,us,fireball,15,bright green moving north to north east. it was bright green and kinda clear. quite fast too.,33.4483333,-112.07333329999999
10/10/1998 13:15,elgin,il,us,cylinder,1800,While looking up at sky I noticed a bright light hovering above the sky. then I noticed a jet airliner traveling in the same area and I,42.0372222,-88.28111109999999
10/10/1998 17:30,las vegas,nv,us,cigar,600,White&#44 vertical cigar shape floating around in the eastern sky.,36175,-115.1363889
10/10/1998 17:30,las vegas,nv,us,circle,2700,Ufo sighting in las vegas near Area51,36175,-115.1363889
10/10/1998 20:30,nyc/westchester area,ny,,triangle,60,Lights over NYC,40.935998,-73.901708
10/10/1998 20:30,spokane (about 30 miles sw of&#44i-90&#44 maybe mm 254),wa,us,triangle,600,Dark boomerange object seen for ten minutes hovering over the freeway with a bright light out the front that lit up the fields. No jet,47.658888899999994,-117425
10/10/1998 20:50,mooresville,nc,us,light,2,Star gazing in back yard with telescope and binos. Saw shooting star and an oblong shape of light.,35.5847222,-80.8102778
10/10/1998 22:30,st. john&#39s (canada),nf,ca,egg,7200,Started off as 3 points of intense yellow light in triangle formation - then grew larger - it becage a single egg shape - VERY bright.,47.55,-52.666667000000004
10/10/1998 23:50,delano,tn,us,fireball,15,I came home from work one night and I seen a bright fire like ball go across the top ofthe mountain and it was going fast then it stopp,35265,-84.55333329999999
10/10/1999 00:01,martinez,ca,us,changing,3600,Bright objects&#44 red and green flashing lights (and a diffuse white light off to one side of the larger of the two objects)&#44 about 30 de,38.0194444,-122.13305559999999
10/10/1999 03:00,st. agnes de dundee (canada),pq,,egg,5400,early morning bright object egg shape fully colorder chaging colors as it turn as it was going it change to white colors,0.0,0.0
10/10/1999 04:00,kansas city,ks,us,unknown,600,Orange object over city.,39.1141667,-94.6272222
10/10/1999 06:00,dallas,tx,us,other,10,group of   twinkling lights at high altitude,32.783333299999995,-96.8
10/10/1999 11:00,san diego,ca,us,fireball,3600,At 10:45 in the morning&#44 my father and I noticed a small stationary object in the sky.,32.7152778,-117.1563889
10/10/1999 12:40,kennewick,wa,us,sphere,45,Standing outside saying goodby to family members and pointing to Chem-Trails,46.211388899999996,-119.13611110000001
10/10/1999 20:35,hayward,ca,us,circle,90,Many different colored glowing  objects,37.6688889,-122.0797222
10/10/1999 21:00,ashland (at our home),mo,us,light,0,We saw on our local news that in Jefferson City&#44(20 minutes from our home)&#44 a craft was spotted reciently. We have not actually observe,38.77444439999999,-92.2569444
10/10/1999 21:00,rachel,nv,us,light,10800,Bright lights with incredible agility seen from mailbox at Area 51 on UFO highway in Nevada for several hourse.,37.644722200000004,-115.7427778
10/10/1999 21:30,humphrey,ne,us,sphere,300,Object moving erratically in sky stopped by spot light,41.6916667,-97.4841667
10/10/1999 22:00,dorset (uk/england),,,flash,1,Whilst out late night cycling (as i have done so for many years and am a hardy fellow);I paused at the cliff tops of our local beach&#44(a,0.0,0.0
10/10/1999 22:30,casey key (north end of),fl,,triangle,120,A large trianglual shaped craft flew from horizon to horizon as observed from the stern deck of a motor vessel,27.150053000000003,-82.480653
10/10/1999 22:30,elgin,or,us,chevron,240,Object silently traveled north -northwest. It was V shaped with five orange lights on the perimeter and one white ligh in the center of,45565,-117.9163889
10/10/1999 23:45,lewiston,mi,us,oval,2700,Oval shaped with lights all around it in a haze with several smaller lights flying all around it.,44.883888899999995,-84.3055556
10/10/2000 03:00,perryville,mo,us,oval,180,The craft was big&#44 orange&#44 and oval shaped.,37.724166700000005,-89.86111109999999
10/10/2000 03:45,carnival cruise ship (paradise) (caribbean),,,flash,1200,Motionless eratic flashing light.,0.0,0.0
10/10/2000 06:15,boynton beach,fl,us,other,10,Unusual light formation moving extremely fast across the sky.,26525,-80.0666667
10/10/2000 07:30,victoria (canada),bc,ca,cylinder,30,Smooth Shiny Cylinder,46.216667,-63.483332999999995
10/10/2000 16:00,jueanu,wi,,triangle,45,5 bight light V shaped,43.40555,-88.705104
10/10/2000 20:20,valley park area of st. louis,mo,,oval,15,Driving on Hyw.141 at Hyw. 44 and going East&#44 I witnessed to my right a glowing orb of light streak horizontally from East to West at a,38.627003,-90.199404
10/10/2000 20:30,brinktown,mo,us,light,1800,3 bright golden lights moving independently above the tree line flaring and fading intermittently for approx. 15 min.,38.1266667,-92.0844444
10/10/2000 21:30,florence,ky,us,light,5,Two objects traveling side by side pass over&#44 as one begins to zig&#44 zag it&#39s path.,38.9988889,-84.6266667
10/10/2000 21:30,seattle (west),wa,us,unknown,10,Dark object in the shape of a (4) after dusk in West Seattle,47.6063889,-122.33083329999998
10/10/2000 22:00,port orchard,wa,us,diamond,60,One night my window started to flash,47.540555600000005,-122635
10/10/2001 03:00,rockwell city,ia,us,triangle,240,Large&#44silent&#44slow&#44low to the ground dull-black Triangle UFO with round red lights at it&#39s corners that were off .I drew it.,42.3952778,-94.6336111
10/10/2001 04:33,sydney (nsw&#44 australia),,au,formation,180,formation and impact,-33.861481,151.205475
10/10/2001 20:10,vancouver (canada),bc,ca,other,300,I observed an green object significantly above a house with the address ((deleted)) Dunbar Street.,49.25,-123.13333300000001
10/10/2001 20:35,hayward,ca,us,circle,120,FALLING STAR  STOPS  &#39SHOTS OUT  DOZENS OF RED POINTS OF LIGHT,37.6688889,-122.0797222
10/10/2001 21:15,ottumwa,ia,us,rectangle,300,We saw a square object at night&#44  which had 2 blue &amp; 2 red lights at corners&#44 hovering in sky above us.,41.0041667,-92.37361109999999
10/10/2001 21:30,fresno,ca,us,changing,900,Objects were sighted driving north on Highway 5 in California&#39s central valley after night fall&#44 not far past &quot;Kettleman/Fresno&quot; exit s,36.7477778,-119.77138889999999
10/10/2001 22:00,phoenix,az,us,triangle,60,Triangle shaped craft spotted flying west to east over mid town Phoenix on 10/10/01 at 22:00 hours 4 light dim making no sounellow,33.4483333,-112.07333329999999
10/10/2001 23:00,virginia beach,va,us,triangle,30,shaped like a stealth bomber (boomerang like&#44 but more triangluar) flat-black in color&#44 made a deep humming sound either really low to,36.8527778,-75.9783333
10/10/2002 00:01,hayward,wi,us,flash,43,we saw pure a light that occasionaly split into 3 to 4 different lights.,46.0130556,-91.4844444
10/10/2002 02:00,philomath,or,us,unknown,5,i watched on the portland news that the space shuttle would be visiable and went to philomath oregon to what was known to be the apple,44.5402778,-123.36638889999999
10/10/2002 04:00,adelaide (pt. wakefield) (south australia),,au,circle,600,one light became 3,-34.928661,138.598633
10/10/2002 06:00,seattle,wa,us,sphere,90,Light falls from sky,47.6063889,-122.33083329999998
10/10/2002 19:45,victoria (canada),bc,ca,unknown,120,bright white light with black outline around it moving soundlessly and slowly from north banking east and disappearing upward.,46.216667,-63.483332999999995
10/10/2002 20:30,cincinnati,oh,us,other,1800,Large octagon blue lights on rim red center light hovers over downtown Cincinnati thursday October 10.,39.161944399999996,-84.4569444
10/10/2002 21:00,portland,or,us,circle,120,The LIGHT is the TRUTH&#33,45.523611100000004,-122675
10/10/2002 22:00,bahamas,,,egg,0,we are sitting outside and commenting on all the air traffic tonight. over to the east we were watching what we thought a plane but nev,25.03428,-77.39628
10/10/2002 22:00,burnie (tasmania) (australia),,au,cross,0,the craft was large and noisy,-41.05584,145.903748
10/10/2003 09:00,new buffulo,mi,,light,120,Craft that suddenly vanishes and another one that shows up and does strange things at high speeds,41.793929999999996,-86.743915
10/10/2003 12:00,alhambra,ca,us,oval,300,3 Black ovals in the sky and a floating movie camera,34.0952778,-118.1261111
10/10/2003 18:00,indianapolis,in,us,sphere,1800,Sphere shape object with flashing bright white lights,39.7683333,-86.1580556
10/10/2003 19:15,centreville,va,us,other,600,Aliens check out local high school football game.,38.8402778,-77.4291667
10/10/2003 20:05,grand view,id,us,light,15,Bright light above Mt. Home AFB,42.9897222,-116.0925
10/10/2003 20:25,temperance,mi,us,oval,18000,pulsating green white and red object in the northwest sky at 45degrees,41.779166700000005,-83.5688889
10/10/2003 21:10,crescent beach,sc,us,formation,37800,For two consecutive nights&#44 we watched a pattern of lights before we were stunned by a discovery on the beach.,33.8075,-78.70111109999999
10/10/2003 22:00,albuquerque,nm,us,light,180,Three bright lights that were huddled together than began to seperate and disappeared.,35.084444399999995,-106.65055559999999
10/10/2003 23:00,bickerton (near wetherby) (uk/england),,,unknown,2700,two bright&#44 but fuzzy lights going in a hovering circle about 200 yards of the ground&#44 with a grey cloud above them,53.070884,-2.7365060000000003
10/10/2003 23:25,gleason,wi,us,sphere,1800,UFO Contact&#44 Amazing close sighting,45.3088889,-89.49638890000001
10/10/2004 02:50,mahwah,nj,us,triangle,180,Triangle shaped flying&#44 hovering U.F.O. witnessed over Sheraton Hotel in Mahwah&#44 NJ. on 10/10/04.,41.0886111,-74.1441667
10/10/2004 03:30,worthington st. forest,nj,,other,2700,witnessed a large object and an intense red light that illumiated the object.,40.058324,-74.405661
10/10/2004 03:50,portage la prairie (canada),mb,ca,changing,1200,Series of Green Blue Red White lights spherical or triangular formation SE of Portage la Prairie&#44 Manitoba Canada,49.966667,-98.3
10/10/2004 04:18,terre haute,in,us,sphere,5,silently&#44 it came over my head from behind; as I was laying on my back. About the size of a thumbnail at arms length&#44 was a lite white,39.466666700000005,-87.4138889
10/10/2004 08:30,indianapolis,in,us,oval,15,((NUFORC Note:  Possible sighting of a contrail??  PD)),39.7683333,-86.1580556
10/10/2004 09:45,nobel (canada),on,ca,unknown,300,Floating Red Object,45.416667,-80.1
10/10/2004 14:00,morgantown,wv,us,circle,10,Solid round silver ball passing over at about 3000MSL.,39.6294444,-79.95611109999999
10/10/2004 15:00,berkeley,ca,us,unknown,180,While driving my car in the mid afternoon of a day in the fall of 2004 on HYW 580 East-bound I had just crossed the San Rafael / Richmo,37.8716667,-122.27166670000001
10/10/2004 15:00,rock island,il,us,sphere,3600,The sky was clear  and the objects at times appeared to rotate slowly.,41.50944439999999,-90.57861109999999
10/10/2004 15:20,kedainiai (lithuania),,,oval,240,6 oval light objects very quickly rounded under the dark cloud for a some minutes ((NUFORC Note:  Possible advertising lights??  PD)),55.28813100000001,23.957728
10/10/2004 19:00,chateauqua,ny,,formation,1200,4 bright circles in a half rainbow formation with a longer bright strip at the top of the formation,42.209773999999996,-79.466844
10/10/2004 19:00,ripley,ny,us,circle,900,7 red/orange stationary objects appeared over Lake Erie on 10/10/04 for 15 minutes and then all disappeared at once.,42.26694439999999,-79.7108333
10/10/2004 21:00,faribault,mn,us,flash,900,Metor or craft descending then sudden flash of light,44295,-93.26861109999999
10/10/2004 21:00,mansfield,oh,us,light,7200,Several UFO&#39s&#44 one bigger one flew right over the car.,40.7583333,-82.5155556
10/10/2004 22:00,columbia,mo,us,light,60,A light moved across the sky in a zig zag way then straightened out and went straight out into space in a matter of seconds.,38.951666700000004,-92.3338889
10/10/2004 23:30,gleason,wi,us,sphere,3000,It was about 9:30PM my friend and I were going to go out deer shining with my step dads truck and my friends spotlight. We left his hou,45.3088889,-89.49638890000001
10/10/2005 07:40,seattle,wa,us,other,60,round symetrical with roundish flat bottom shiny white colored low flying bigger than  a plane.,47.6063889,-122.33083329999998
10/10/2005 09:00,apache junction,az,us,other,30,half-moon shaped objects that just winked out,33415,-111.5488889
10/10/2005 09:30,north miami beach,fl,us,oval,1800,i sent you an e-mail 2 days ago and really want to be contacted&#44 PLEASE  contact me asap&#44 I&#39m not crazy and nether is my wife&#44 please c,25.932777800000004,-80.16277779999999
10/10/2005 11:30,edgewater,fl,us,,0,orange ball in sky video taped over edgewater florida,28.988611100000004,-80.9025
10/10/2005 14:45,los angeles,ca,us,egg,10,Egg UFO over Hollywood Hills and LAX in LOS ANGELES&#44 CA.,34.0522222,-118.2427778
10/10/2005 20:00,loretto,pa,us,triangle,300,Dull red flash&#44 Triangular ship&#44 Vocal Noises,40.5030556,-78.6305556
10/10/2005 20:00,newtown (uk/wales),,gb,formation,360,red/orang lights dancing in the sky.,52.516667000000005,-3.3
10/10/2005 21:00,lewisburg,tn,us,unknown,240,Like a grouping of balloons with a slight glow to them,35.4491667,-86.7888889
10/10/2005 21:30,north miami beach,fl,us,other,3600,a manta ray shaped object with orange and yellow lights flashing in,25.932777800000004,-80.16277779999999
10/10/2005 22:08,east wenatchee,wa,us,light,1200,Strange light over East Wenatchee Washington,47.415833299999996,-120.29194440000002
10/10/2005 23:00,hendersonville,nc,us,light,600,Last night&#44 October 10&#44 at about 11:00PM for about ten minutes I observed a peculiar point source light in the Eastern sky. It was at a,35.318611100000005,-82.4611111
10/10/2005 23:07,brainerd,mn,us,disk,300,A big lighted up silver saucer.,46.35805560000001,-94.2005556
10/10/2005 24:00,franklin,in,us,disk,0,two yellow objects sitting over the corn field in Franklin&#44 Indiana,39.4805556,-86055
10/10/2006 01:00,pennington,tx,us,diamond,3600,IN form of diamond with multi colored lights that acted like disco light except one.  theone light was like a brite star and would resp,31.191111100000004,-95.23527779999999
10/10/2006 05:00,san francisco,ca,us,triangle,600,black triangles were seen flying across the surface of the full moon,37775,-122.41833329999999
10/10/2006 12:37,blairsville,ga,us,unknown,10,Intermittant streak by moon&#44 not seen on photo taken 10 seconds earlier.,34.8761111,-83.95833329999999
10/10/2006 16:00,savannah,tn,us,light,600,weird light that moved in the sky,35.2247222,-88.2491667
10/10/2006 16:00,waynesboro,va,us,triangle,600,Large...beautiful...and brighter than anything I&#39ve ever seen....How small I have felt since....,38.0683333,-78.88972220000001
10/10/2006 19:00,unsure,ar,,fireball,2,Extreme sound with trails and orange red blue hues to it.  The trails were bright bright white.,35.20105,-91.83183299999999
10/10/2006 20:00,bray,ok,us,other,360,Glowing V Shaped Object flying Low making no sound.,34.6377778,-97.8172222
10/10/2006 21:47,plymouth (devonshire) (uk/england),,gb,formation,120,they were right above me very small almost like minni stars and they were circling round sommothing and came closer and further away an,50.396389,-4.138611
10/10/2006 22:40,waycross,ga,us,light,120,Redish orange light viewed from Waycross &#44Ga. Moving Northwest and suddenly just goes out.,31.2133333,-82.35416670000001
10/10/2006 22:50,wolfforth,tx,us,disk,300,Huge aircraft with diagnally aligned white lights moving slowly and loudly through the night.,33.5058333,-102.0086111
10/10/2006 23:00,lyndhurst,oh,us,unknown,300,This is a follow up to my Feb. 16th&#44 1995 report.  This past Tuesday&#44 my wife and I AGAIN heard the same loud&#44 rumbling roar that we he,41.52,-81.4888889
10/10/2006 23:55,knik,ak,us,triangle,0,Slow moving&#44 no sound&#44  illuminated (craft) triangle over Point McKenzie&#44 Alaska.,61.457777799999995,-149.7288889
10/10/2007 01:00,lebanon,or,us,light,14400,Small Orange-White &quot;star&quot; that moves around in circles&#44 up&#44 down&#44 and sideways fast in the night sky,44.536666700000005,-122.90583329999998
10/10/2007 01:00,stockbridge,ga,us,changing,3600,i was abducted,33.5441667,-84.23388890000001
10/10/2007 04:00,denver,co,us,changing,2700,Huge lighted cluster in the eastern sky.  ((NUFORC Note:  Sighting of Venus.  PD)),39.7391667,-104.98416670000002
10/10/2007 04:30,jacksonville,fl,us,sphere,30,half mile from de saint Jhons River&#44 low flying sphere&#44   at slow speed without noise,30.331944399999998,-81.6558333
10/10/2007 05:00,bakersfield,ca,us,circle,0,UFO sighting in Bakersfield,35.3733333,-119.01777779999999
10/10/2007 06:00,indio,ca,us,oval,600,Observed 2 white clouds of identical shape in clear blue shy with object becoming visible beneath one cloud.,33.720555600000004,-116.21472220000001
10/10/2007 13:00,owego,ny,us,triangle,10800,triangle with 3 llights blinking. 500 Lights On Object0: Yes,42.103333299999996,-76.2625
10/10/2007 18:33,downingtown,pa,us,circle,120,Star-like (but MUCH BRIGHTER AND LARGER) light west of D-town&#44 PA.  Seen against sunset.  ((NUFORC Note:  Contrail??  PD)),40.0063889,-75.70361109999999
10/10/2007 19:00,austin,tx,us,flash,3,pulsing flash recurring at 2 second intervals 3 times along the same trajectory along 90 degrees of sky,30.266944399999996,-97.7427778
10/10/2007 20:10,starrsville (covington),ga,us,sphere,60,MUFON GEORGIA FOLLOW-UP REPORT:  Joint NUFORC-MUFON of Georgia Investigation-Fiery Sphere Shaped Object,33.539444399999994,-83.8194444
10/10/2007 20:24,west palm beach florida,fl,,fireball,180,Burning ball across the sky over central/south florida. Strobing effect towards end of the final view of object.,26.705621,-80.03643000000001
10/10/2007 20:30,conyers,ga,us,unknown,3600,Craft seen falling and dissapears into thin air.  ((NUFORC Note:  Missile launch??  We have no explanation for the aircraft.  PD)),33.6675,-84.01777779999999
10/10/2007 20:55,vero beach,fl,us,unknown,30,Shooting star without red globe burn-out or descent maintains steady Southerly trajectory.  ((NUFORC Note:  Missile launch??  PD)),27.6383333,-80.3975
10/10/2007 21:00,jensen beach,fl,us,oval,120,A oval shaped object hovered and shot through the sky with very bright lights and then vanished. 500 Lights On Object0: Yes,27.254166700000003,-80.23
10/10/2007 21:43,houston,tx,us,formation,35,Large Boomerang formation of lights over Houston&#44 Beltway 8 &amp; Westheimer moving north to south 10/10/07&#44 9:43 PM.,29.763055600000005,-95.3630556
10/10/2007 22:00,duluth,mn,us,light,600,Bright pulsating light over lake superior.,46.783333299999995,-92.10638890000001
10/10/2007 22:00,fleming,co,us,circle,600,UFO SPOTTED&#44 FLEMING COLORADO,40.68,-102.83888890000001
10/10/2007 22:00,grove city,pa,us,unknown,3600,Light pattern moving silently through rapid maneuvers over Grove City,41.1577778,-80.08888890000001
10/10/2007 22:00,van alstyne,tx,us,other,4,large mass of tiny lights all clustered together in the shape of a large boomerang over eastern sky in north Texas.,33.4213889,-96.5769444
10/10/2007 23:05,northglenn,co,us,triangle,15,Hovering triangular shape seen with flashing lights seen in Colorado,39.8855556,-104.98666670000001
10/10/2007 23:20,stord (norway),,,light,600,Thise could be an ETV case&#44 but it could also be helicopters or/and airplanes,59.900209,5.282347
10/10/2008 02:00,london (canada),on,ca,other,120,C shape with a T front over London ont on Oct 10&#44 2008 on a clear day around 2PM,42.983333,-81.25
10/10/2008 02:00,north branch,mn,us,light,300,Lights at night&#44 shining into car and garage and around blinds,45.5113889,-92.98
10/10/2008 02:00,slingerlands,ny,us,circle,240,Huge&#44 moon size&#44 orange&#44 bright&#44 almost complete circle,42.6291667,-73865
10/10/2008 04:00,carlin,nv,us,disk,600,Ufo sighting in Carlin&#44 NV&#44 at the pilot truck stop. 500 Lights On Object0: Yes,40.71388889999999,-116.10305559999999
10/10/2008 04:50,evansville,in,us,formation,600,I saw a huge V-shaped object moving slowly and silently over the roof tops in my neighborhood.,37.9747222,-87.5558333
10/10/2008 06:00,albany,ny,us,oval,45,I live Colonie&#44 New York&#44 a suburb of Albany.  I live within 4 miles of the Albany International Airport. Many  takeoff&#8217;s and landings,42.6525,-73.7566667
10/10/2008 09:30,amarillo (hwy. 140),tx,us,flash,0,we saw flashing lights,35.2219444,-101.8308333
10/10/2008 10:22,fremont,ca,us,triangle,60,I saw a brightly lightes v shaped ufo while driving through fremont&#44ca.,37.548333299999996,-121.9875
10/10/2008 18:00,yuma,az,us,triangle,900,Carousel in the sky on fire / pixalated triangle over Yuma&#44 AZ,32.7252778,-114.6236111
10/10/2008 19:00,south bend,in,us,light,600,Glowing succession of flying objects on the horizon.,41.6833333,-86.25
10/10/2008 20:00,la crescent,mn,us,formation,10,six strange lights in the sky over La Crescent MN,43.828055600000006,-91.3038889
10/10/2008 20:00,moon township,pa,,unknown,120,unknown rectangular shaped aircraft with bright lights seen over Rt. 60 near Pittsburgh International Airport&#44 definitely NOT a plane,40.516977000000004,-80.22134799999999
10/10/2008 20:00,philadelphia,pa,us,oval,60,Silent&#44 oval&#44 bright white craft in yard.,39.9522222,-75.1641667
10/10/2008 20:00,seattle,wa,us,light,180,Around 8:00 pm? I Went out side and looked up at the stars and I saw a light which I thought was a small faded star  until it started t,47.6063889,-122.33083329999998
10/10/2008 20:40,pueblo,co,us,light,300,In the northwest sky&#44 there were about seven lights moving slowly and flashing in and out if an extremely strange fashion.,38.2544444,-104.60861109999999
10/10/2008 21:30,cincinnati,oh,us,oval,900,12 ovel objects flying east to west orange and red at a slow speed then vanished,39.161944399999996,-84.4569444
10/10/2008 22:00,san diego,ca,us,disk,30,low flying saucer in suburban area.  ((NUFORC Note:  Student report.  PD)),32.7152778,-117.1563889
10/10/2008 22:30,madison,wi,us,circle,20,Tanslucent orange/yellow UFO in Madison WI,43.0730556,-89.4011111
10/10/2008 23:15,coldwater,oh,us,sphere,60,spherical in shape&#44 orange flames coming from the bottom&#44 completely silent&#44 moved fast and also hovered.,40.4797222,-84.6283333
10/10/2009 00:00,greenland,,,rectangle,0,Found this on google maps 70.5&#44 -40.3 Look it up&#44 this can&#39t be an error or an artifact on the photo it is 50+ miles long.,0.0,0.0
10/10/2009 12:00,crested butte,co,us,egg,60,metallic egg shaped craft above crested butte&#44 CO.  Also have seen great amount of activity READ ME&#33,38.8697222,-106.9872222
10/10/2009 12:42,tulsa,ok,us,unknown,6,In&#39t see nothing in the park,36.1538889,-95.9925
10/10/2009 16:24,eagar,az,us,unknown,180,Second sighting was only 150 feet away.  Observations between two sightings.,34.1111111,-109.29083329999999
10/10/2009 19:30,suffolk,va,us,unknown,900,It looked sort of lime green.  It appeared to have an odd texture.  It had a dimples on its surface.  It was not smooth at all.  It jus,36.728055600000005,-76.5838889
10/10/2009 20:30,anaheim,ca,us,light,300,UFO over Disneyland.,33.8352778,-117.9136111
10/10/2009 20:45,wilmington,nc,us,light,600,Two lights seen with a lighting of something strobe like near the ground.,34.22555560000001,-77945
10/10/2009 21:00,leesburg,va,us,disk,300,Two large glowing amber/dark orangish colored circular disks-not a sound-,39.11555560000001,-77.56388890000001
10/10/2009 22:30,thief river falls,mn,us,other,0,2 orange orbs over airport,48.1191667,-96.1808333
10/10/2009 23:00,michigan city,in,us,changing,900,black object that seemed to impode into a sphere and vanish&#44 only to reappear in the same shape and move location,41.7075,-86895
10/10/2009 23:23,cupertino,ca,us,light,180,Bright red light object made random moves horizontally and floated for a while and then went up vertically.,37.3230556,-122.0311111
10/10/2010 01:00,orchard park,ny,us,light,7200,Xmas colored rotating lights.  ((NUFORC Note:  Twinkling stars??  PD)),42.7675,-78.74416670000001
10/10/2010 02:30,harrisburg,pa,us,circle,240,possible UFO sighting,40.273611100000004,-76.88472220000001
10/10/2010 03:00,euclid,oh,us,circle,180,2 objects blinking red and white&#44 disappeared into the sky&#44 after hovering around sky for 3 minutes.( over lake erie,41.59305560000001,-81.5269444
10/10/2010 08:30,starr,sc,us,formation,600,Strange orange lights in the night sky,34.3769444,-82.6958333
10/10/2010 10:45,leominster,ma,us,flash,0,we were in the car and i looked out the window and i seen a unually big ball of a deep yellow color (way bigger than a shooting star li,42525,-71.7602778
10/10/2010 12:00,greenwich,ct,us,light,240,&quot;Star&quot; like objects during clear day light in formation.,41.02638889999999,-73.6288889
10/10/2010 13:00,north charleston,sc,us,light,180,Object(s) visible 3 times at same place in the sky at during day in Chas&#44 SC,32.8544444,-79975
10/10/2010 15:00,san francisco airport,ca,,triangle,300,White or light grey colored and leaving red/orange contrails on a bright blue sky.,37.615223,-122.389979
10/10/2010 16:30,springfield,va,us,cigar,15,Metalic cigar shaped object sighted during lull in a storm in Springfield&#44 VA,38.7891667,-77.1875
10/10/2010 17:10,bridgeport,ct,us,light,600,Saw a light in the sky fading in and out over Bridgeport&#44 CT.,41.1669444,-73.20527779999999
10/10/2010 18:30,clackamas,or,us,triangle,120,triangular ufo sighting in oregon 10-10-10,45.4077778,-122.56916670000001
10/10/2010 20:00,san angelo,tx,us,oval,60,I was coming back from the grocery store around 8:30 pm when I noticed a large orange glowing object in the sky above my neighbors hous,31.463611100000005,-100.4366667
10/10/2010 20:20,windsor,ct,us,fireball,5,Bus sized fireball object over 91 about 3-400 ft up going about 150 mph at a downward 20 degree angle.,41.8525,-72.6441667
10/10/2010 20:45,sterling,il,us,cylinder,600,It had rows of white lights with red lights pulsating in between them,41.788611100000004,-89.6961111
10/10/2010 21:00,everett,wa,us,other,30,crown shaped object with two orange lights over everett wa,47.9791667,-122.20083329999999
10/10/2010 21:00,kykotsmovi,az,us,disk,7200,We saw  what seem to be a space craft in the eastern sky of northern AZ&#44 on 10-10-10.,35.8752778,-110.61972220000001
10/10/2010 21:30,albany,ny,us,circle,10,Circle of light SUNY Albany.,42.6525,-73.7566667
10/10/2010 22:30,garden grove,ca,us,egg,7200,Blue Light in Garden Grove,33.773888899999996,-117.94055559999998
10/10/2010 23:00,miami,fl,us,changing,1200,Bright lights hovering and going in and out of orchestrated formations,25.7738889,-80.1938889
10/10/2010 23:30,anaheim,ca,us,disk,0,UFO over Anaheim CA&#44 near midnight&#44 circular with blue lights. Investigated by mysterous helicopter.,33.8352778,-117.9136111
10/10/2011 00:00,troy,ny,us,triangle,7200,Red&#44 green &amp; orange blinking triangle formation.  ((NUFORC Note:  Probable sighting of a twinkling star&#44 possibly Sirius.  PD)),42.728333299999996,-73.6922222
10/10/2011 01:00,farmington,nm,us,circle,300,Single reddish circle  in the sky that wasn&#39t jet nor satelitte,36.728055600000005,-108.21805559999999
10/10/2011 02:00,prescott valley,az,us,other,300,Craft boomerang shape.2:00am duration hours.  ((NUFORC Note:  Probable sighting of a twinkling star&#44 possibly Sirius.  PD)),34.61,-112315
10/10/2011 10:30,ashville,ny,us,circle,60,Amber object in night sky during full moon&#44 or the day before full moon,42.096388899999994,-79.3758333
10/10/2011 14:00,epsom (surrey) (uk/england),,gb,oval,300,Flying beer barrel shaped metallic object,51.316666999999995,-0.266667
10/10/2011 14:30,north kingstown,ri,us,oval,40,Bright oval object in sky,41.55,-71.4666667
10/10/2011 15:00,groton,ct,us,disk,5,Small shiny object seen in sky while driving on clear day&#44 looked back for a 3rd time and it was gone.,41.35,-72.07888890000001
10/10/2011 18:15,peabody-saugus,ma,,flash,2700,Flashing light in the sky as airplanes flew by.,42.468164,-71.01411800000001
10/10/2011 19:00,mechanicsville,va,us,light,300,Three orange lights flying in unison,37.608611100000005,-77.37361109999999
10/10/2011 19:30,murfeesboro/smyrna,tn,,,2700,Multi color oblect over Smyrna/Murfreesboro 10/10/11,35.947474,-86.48836700000001
10/10/2011 20:00,hamilton (canada),on,ca,flash,4,Strange flash in the sky,43.25,-79.833333
10/10/2011 20:00,middletown,ct,us,fireball,1200,Fireball Spinning Orange UFO,41.5622222,-72.6511111
10/10/2011 21:00,lakewood,oh,us,fireball,60,Orange light flies overhead and turns black as it passed silently.,41.481944399999996,-81.7983333
10/10/2011 21:00,york,pa,us,circle,15,BRIGHT LIT ORB SPEEDS ACROSS S.CENTRAL PA. SKY&#44 MAKING NO SOUND&#44 THEN DISAPPEARS,39.9625,-76.7280556
10/10/2011 21:55,north platte,ne,us,circle,3,Object over North Platte Nebraska,41.1238889,-100765
10/10/2011 23:00,waynesville,oh,us,triangle,90,Flying triangle by Waynesville&#44 Ohio,39.5297222,-84.0866667
10/10/2012 10:15,bridgeport,ct,us,circle,630,A Bright light that is a UFO,41.1669444,-73.20527779999999
10/10/2012 15:00,san francisco airport,ca,,triangle,300,San Francisco International Airport         afternoon      about  5minutes       super clear conditions,37.615223,-122.389979
10/10/2012 18:56,san diego,ca,us,sphere,240,Single white light or craft passed over and very close to a commercial jet.  ((NUFORC Note:  Possibly the ISS?  PD)),32.7152778,-117.1563889
10/10/2012 19:09,sterling heights,mi,us,oval,120,A black unknown craft is seen in the sky over Sterling Hts. Michigan,42.5802778,-83.0302778
10/10/2012 19:40,syracuse,ny,us,light,900,Went to move my car to the other side of the road in the city of syracuse.  saw low flying lights moving east towards dowtown.,43.048055600000005,-76.1477778
10/10/2012 19:45,syracuse,ny,us,circle,240,Bright orange circles going thru the sky in the same direction. Some were closer to each other.,43.048055600000005,-76.1477778
10/10/2012 20:00,colorado springs,co,us,light,20,Bright zig zagging light in the sky above norad.,38.8338889,-104.8208333
10/10/2012 20:00,moundville,al,us,changing,240,Orange fiery lighting objects changing locations.,32.9975,-87.63
10/10/2012 20:15,new york city (bronx),ny,us,disk,1800,A cloaked disk hovered three hundred feet above two apartment buildings in the Bronx&#44 for aproximately thirty minutes.,40.7141667,-74.0063889
10/10/2012 20:17,mount albert (canada),on,,triangle,30,On Wednesday October 10 2012 at 8:17 pm in Mount Albert Ontario I saw a triangle shaped UFO. It had a single light on each point and it,44.136076,-79.308339
10/10/2012 20:30,las cruces,nm,us,fireball,120,4 fireballs in sky side by side,32.3122222,-106.7777778
10/10/2012 20:30,marion,il,us,light,240,I was leaving my friend&#39s house to go home.  My friend and her 3 1/2 year old daughter walked me to her front door when she noticed all,37.7305556,-88.9330556
10/10/2012 20:30,san jose,ca,us,other,6,POSSIBLE ALIEN/HUMANOID SEEN RUNNING INTO HILLS,37.3394444,-121.8938889
10/10/2012 20:45,phoenix,az,us,sphere,300,18 glowing UFOs seen over Phoenix  AZ tonight&#44 10/12/12 8:45PM,33.4483333,-112.07333329999999
10/10/2012 20:48,yakima,wa,us,light,240,Noticed light in the N.E. section of the sky about 30 deg. up that did not move. About the size of Venus.  ((NUFORC Note:  Capella?  PD,46.6022222,-120.5047222
10/10/2012 21:00,austin,tx,us,changing,1200,Spheres of light seen over the west campus area of austin which then broke apart and sped off in different directions.,30.266944399999996,-97.7427778
10/10/2012 21:00,bean station,tn,us,cigar,180,Large cigar shaped flying about 800 feet high.  Huge square engines on back.,36.343611100000004,-83.2841667
10/10/2012 21:00,rochester,wa,us,light,600,Fleet of red UFO&#39s emerging from Mt. Rainier.,46.82194439999999,-123095
10/10/2012 23:01,suffern,ny,us,cylinder,20,UFO over Suffern NY,41.1147222,-74.15
10/10/2012 23:20,rancho mirage,ca,us,rectangle,5,Flying red object over Rancho Mirage&#44 ca,33.7397222,-116.41194440000001
10/10/2013 00:00,clifton,nj,,light,60,Bright light&#33&#33,40.858433000000005,-74.16375500000001
10/10/2013 02:32,palm harbor,fl,us,chevron,5,Tracking north to south at apx 2500 ft. A very fast&#44 semi-transparent Chevron shape craft&#44 slightly larger than a commercial plane.,28.0777778,-82.76388890000001
10/10/2013 04:00,sandusky,oh,us,triangle,0,Triangle shaped various different color lights moving really fast in various directions.  ((NUFORC Note:  Star??  PD)),41.4488889,-82.7080556
10/10/2013 05:00,aurburn,ky,,triangle,600,Three bright lights over field.,36.864209,-86.710273
10/10/2013 17:00,st. louis county,mo,us,light,10800,Hovering bright object moving slowly around St. Louis.,38.6272222,-90.1977778
10/10/2013 17:10,ottawa (canada),on,ca,light,10,FATHER: My name is Eldon Trepanier&#44  and I assure you that the following statement is true.At approximately 5:10 pm&#44 I spotted a very b,45.416667,-75.7
10/10/2013 19:00,rittman,oh,us,light,60,Fast moving white light.,40.978055600000005,-81.7822222
10/10/2013 19:15,harvey station (canada),nb,ca,light,120,Slow moving bright orange light.,45.716667,-67.0
10/10/2013 19:20,essex junction,vt,us,light,120,Noiseless&#44 low flying&#44 white&#44 bright constant light.,44.49055560000001,-73.11138890000001
10/10/2013 19:20,kenner,la,us,circle,600,2 circle lights moving erratically over Kenner&#44 La.,29.993888899999998,-90.2416667
10/10/2013 20:00,drexel,oh,us,circle,300,Yellow/orange&#44 sphere/circle that flew across night sky &#44slow speeds then simply vanished &#44 had no blinking lights&#44 was not an airplane,39.7463889,-84.2866667
10/10/2013 20:00,hudson,nh,us,light,5,White&#44 orb above the clouds moving very fast&#44 no flashing lights&#44 zoomed across the sky and disappeared out of sight.,42.7647222,-71.44027779999999
10/10/2013 20:30,grand blanc,mi,us,light,1200,3 bright lights holding a vertical position over central Michigan&#44 USA.,42.9275,-83.63
10/10/2013 20:30,savage,mn,us,circle,60,I saw a sphere shaped object flying east to west moving faster than any conventional aircraft was white to orange in color as it reache,44.779166700000005,-93.3361111
10/10/2013 20:32,warren,mi,us,sphere,45,Three glowing reddish-orange spheres changing to white lights,42.4775,-83.0277778
10/10/2013 20:35,canton,mi,us,triangle,180,Black triangle aircraft with white lights on each point&#44 completely silent&#44 seen flying low SW to NE.,42.3086111,-83.48222220000001
10/10/2013 21:00,kingsville (canada),on,ca,,0.0,Extremely fast multiple colored lights&#44 constantly moving and stopping back to its place of origin.  ((NUFORC Note:  Star?  PD)),42.033333,-82.75
10/10/2013 21:17,lost creek,wv,us,triangle,45,Small triangle with 3 lights floating low over a field then slowly flying away.,39.16111110000001,-80.3522222
10/10/2013 21:30,hudson,nh,us,light,1,Very white bright light moving fast inside clouds.,42.7647222,-71.44027779999999
10/11/1973 16:45,jupiter,fl,us,egg,14400,EGG-SHAPED OBJECT EMITS LIGHT RAY AND PEOPLE LOSE 4 HOURS,26.933888899999996,-80.0944444
10/11/1978 23:00,brighton,mi,us,circle,300,round revolving lights reflecting on the fog,42.529444399999996,-83.7802778
10/11/1986 20:30,alice springs  (nt&#44 australia),,au,,20,Being  of light reported&#44Jesus or another messenger&#33,-23.697479,133.883621
10/11/1987 21:30,minnetonka,mn,us,light,30,White light moves west to east&#44 suddenly stops&#44 then moves south at a high rate of speed.,44.9133333,-93.5030556
10/11/1987 23:59,otto,mo,us,fireball,60,bright blue ball of light.,38.3708333,-90.50027779999999
10/11/1989 02:30,copenhagen (denmark),,,fireball,180,ann:Light as an exploding thing then taking form to a ball&#39and first scatter the to the nearest corner&#44next the opposit&#39site of the lau,0.0,0.0
10/11/1989 21:00,kewanee,il,us,sphere,180,HBCCUFO CANADIAN REPORT:  Large glowing sphere was positioned almost directly overhead.,41.2455556,-89.9247222
10/11/1989 21:00,kewanee,il,us,sphere,300,Reddish-orange sphere seen outside Kewanee&#44 IL,41.2455556,-89.9247222
10/11/1992 10:00,albuquerque,nm,us,sphere,900,Six Spheres of light move into my vision over the 92 Albuquerque Balloon Fiesta&#44then vanish straight up.,35.084444399999995,-106.65055559999999
10/11/1994 02:00,jackson,nj,us,triangle,300,triangle UFO in jackson NJ  Countyline 526   over the old fire station next to the trailer park,39.77638889999999,-74.86277779999999
10/11/1994 04:00,riverside,ca,us,chevron,4,Double white lights in chevron shape flying north to south about the size of the constellation of the Pleades&#44 covered half the sky in,33.9533333,-117.39527779999999
10/11/1994 24:00,hot springs and custer,sd,,triangle,0,October 11&#44 1994--Hot Springs/Custer--triangle alerts dogs/ MUFON investigator witnesses,43.431646,-103.474362
10/11/1995 18:30,new york city (brooklyn),ny,us,,720,Young man&#44 mother witness watch strange red obj. 45 deg. above horizon w/ binocular.  Obj. suddenly fades&#44 disappears from sight.,40.7141667,-74.0063889
10/11/1995 20:00,huntington,wv,us,,120,Young man &amp; grandfather see a &quot;large&#44 orange&#44 round or oval&quot; obj. move along horizon very fast&#44 hover&#44 move erratically.  Bizarre&#33,38.4191667,-82.4452778
10/11/1996 16:00,bismarck,nd,us,formation,0,5 white lights in formation,46.8083333,-100.7833333
10/11/1996 22:00,damascus,va,us,light,60,1996 SIGHTING IN DAMASCUS&#44 VA. WHILE CAMPING IN THE CHEROKEE NATIONAL FOREST.,36.6336111,-81.78388890000001
10/11/1997 22:00,hafnarfjordur (iceland),,,sphere,300,playing with a jet,64.06666700000001,-21.95
10/11/1997 23:30,esl&ouml;&#44 scania (sweden),,,,600,During an IYCW (International Youth Camp Weekend)&#44 when we were sitting in groups of different campfires in an area of a quarter of one,0.0,0.0
10/11/1998 02:15,montara,ca,us,other,3600,Boomerang shaped lit up at the neds and center of the boomerang.,37.5422222,-122515
10/11/1998 14:05,vega baja (puerto rico),pr,us,cigar,120,I went out and saw this cigar shaped object&#44 high above&#44 about where the sun would be at 12 o&#39clock. I stared at it trying to identify,18.4463889,-66.3880556
10/11/1998 14:30,mount carmel,tn,us,light,10,Bright shiny object splits in two and disappears above horizon.,36.5452778,-82.66111109999999
10/11/1998 20:30,highland,in,us,sphere,0,Possible shperical object in northern sky.  Colors were green over yellow over red.  Disappeard&#44 then reappeared west of original locat,39.794444399999996,-87.39583329999999
10/11/1998 20:30,highland,in,us,sphere,14400,Spherical.  Red&#44 yellow&#44 and green lights.  Below clouds&#44 yet very high up.,39.794444399999996,-87.39583329999999
10/11/1998 22:40,bar harbor (bar island crossover),me,us,sphere,30,My friend Steven and I were crossing over to Bar Island at low tide when we witnesses a green spherical object crossing the sky at a gr,44.3875,-68.2044444
10/11/1998 22:45,elk grove,ca,us,fireball,4,Greenish blue fireball streaking across horizon,38.408888899999994,-121.37055559999999
10/11/1999 00:15,montgomery,al,us,light,180,Bright light coming from back yard and a surreal sensation of forboding.,32.3666667,-86.3
10/11/1999 01:00,milton (canada),on,ca,triangle,0,Strange hovering triangular craft man made,46.3,-63.216667
10/11/1999 04:30,los angeles,ca,us,light,300,It was a large bright light sitting stationary in the sky. Within our atmosphere. Not a star. It did not move or change shape and was t,34.0522222,-118.2427778
10/11/1999 06:10,somerset?,wi,,unknown,120,Huge pulsating red light over I-94.  High overhead&#44 moving east,45.124411,-92.673537
10/11/1999 07:40,three rivers,mi,us,oval,600,While dirving to work this monday morning the 11th of October I spotted two jets flying toward the horizion. Becouse of the rising sun,41.9438889,-85.6325
10/11/1999 09:10,canby,or,us,light,10,i saw bright light come out of clouds&#44 2 aircraft came from behind and appeared to shot at the light&#44 light went back into the clouds,45.2630556,-122.69138889999999
10/11/1999 18:00,parry sound (near) (canada),on,ca,disk,6,A silvery disk shaped object&#44 flew over an aircraft&#44 then disappeared.,45.333333,-80.033333
10/11/1999 20:15,portville,ny,us,oval,30,The object was just below the tree line. The object was light up by a yellowish light with blue lights.You could see the windows in it,42.038611100000004,-78.34111109999999
10/11/1999 20:15,portville,ny,us,oval,30,Was oval shaped had different colored lights all the way around the center of the object. The top was yellowish with windows with light,42.038611100000004,-78.34111109999999
10/11/1999 20:15,portville,ny,us,oval,60,it was a beautiful oval shaped object that had huge windows lite with every color you can imagine.  we saw this object to the left of t,42.038611100000004,-78.34111109999999
10/11/1999 20:15,portville,ny,us,oval,60,oval shaped with colorful lights all around with huge windows lite up very colorful most beautiful thing in the sky. in valley area it,42.038611100000004,-78.34111109999999
10/11/1999 20:35,kirbyville (due south of),mo,us,other,5400,About 2030 cst I noticed what apeared to be a &quot;tumbler&quot; a flashing satellite. After observing for approx.10 min. I realized that the ob,36.6230556,-93.1638889
10/11/1999 21:00,winnemucca,nv,us,cigar,2,oblong&#44 extremely large and  bright object in sky&#44 going behind mountains. Object much larger than a meteorite.,40.9730556,-117.73472220000001
10/11/1999 21:10,ashland,or,us,triangle,45,I was looking into the sky towards the high east watching what appeared to be a passenger jet cross the sky when my periphial vision ca,42.1947222,-122.70833329999999
10/11/1999 21:30,augusta,ks,us,light,600,Object was at 45 degrees above southern horizon. Being stationary for 5 mins. and then executed some right angle maneuvers. Focal dista,37.6866667,-96.9763889
10/11/1999 21:30,montgomery,tx,us,light,3600,Pinpoint of light travelled from east to west breifly then hovered for about an hour then disappeared.,30.388055600000005,-95.6961111
10/11/1999 21:45,eureka springs,ar,us,light,900,Bright light due south&#44 traveling east extremely slowly. Bright flash given off from object every 10 seconds&#44 with a dim flash every 3,36.4011111,-93.73777779999999
10/11/1999 22:15,parker&#39s lake,ky,,disk,900,Flashing lights sighted out of my window,37.704344,-88.426757
10/11/1999 22:30,addison (i-355 and us 20 (lake st.),il,us,disk,600,Saucer shaped object&#44with rows of red lights on bottom side; one white lighttop and bottom,41.9316667,-87.9888889
10/11/2000 19:30,london (uk/england),,gb,diamond,3,Diamond shaped ufo seen pulsing for short time near London England,51.514125,-0.093689
10/11/2000 20:00,watertown,ny,us,light,30,Was looking at the near full moon with binoculars when a very bright round light appeared to the left of the moon. at arms lenght it wa,43.9747222,-75.91111109999999
10/11/2000 22:00,elverta,ca,us,light,30,White starlike lights in sky that blink red and blue and move erratically over Sacramento region.,38.71388889999999,-121.46166670000001
10/11/2000 22:09,dolgellau (uk/wales),,gb,changing,240,How two became one.,52.75,-3.8833330000000004
10/11/2000 23:30,whittier,ca,us,light,1500,UFO ENCOUNTER LESS THAN 300 FEET,33.9791667,-118.03194440000001
10/11/2001 01:00,somerset,wi,us,light,10800,My brother and I went outside to have a smoke and then noticed a moving&#44 multicolored light in the sky....,45.124444399999994,-92.6733333
10/11/2001 02:15,fairbanks,ak,us,other,1800,It looked like a star but it would move and after a few seconds a red aura would appear around it and emit objects.,64.8377778,-147.7163889
10/11/2001 05:15,denver,co,us,light,900,Odd Lights in Colorado Sky,39.7391667,-104.98416670000002
10/11/2001 08:15,columbia,ms,us,teardrop,300,short vapotr looking teardropped object&#44 always beside the sun&#33&#33&#33noticed from 10/11-10/26/01,31.2516667,-89.8375
10/11/2001 20:35,grass valley,ca,us,triangle,60,Three bright white lights in a row&#44 in the sky.,39.2191667,-121.06
10/11/2001 23:49,lima,oh,us,teardrop,300,We saw three teardroped shaped crafts with slowy flashing lights moving very slow then taking off very rapidly.,40.7425,-84.1052778
10/11/2002 06:17,springfield,mo,us,fireball,6,bright green triangular object throwing sparks traveling extremely fast,37.2152778,-93.2980556
10/11/2002 13:25,reno,nv,us,sphere,600,A small white sphere which stopped&#44 hovered for 5 minutes&#44 then took off and disapeared.,39.5297222,-119.81277779999999
10/11/2002 16:15,randolph,ma,us,cylinder,300,Daylight sighting of High Altitude Light,42.1625,-71.04166670000001
10/11/2002 20:36,dallas,tx,us,fireball,3,Meteor lights up the skies over Dallas&#44 crashes somehere to the south.,32.783333299999995,-96.8
10/11/2003 00:00,san diego,ca,us,,172800,Lost two days awaken to power out tv fried and blood from ear.Disoriented,32.7152778,-117.1563889
10/11/2003 00:20,austin,mn,us,circle,5,THE TWO WHITE ROUND OBJECTS FLEW SYNCHONIZED SIDE BY SIDE AND EVENTUALLY VEERED OFF MADE HALF A CIRCLE AND MERGED&#44 AND RE-ENTERED SPACE,43.6666667,-92.9744444
10/11/2003 01:29,new york city (manhattan),ny,us,egg,120,object  discharged another&#44 flew at first low then went higher hovered around empire state building,40.7141667,-74.0063889
10/11/2003 03:00,truckee,ca,us,sphere,3,Round very light blue object goes behind a small mountain,39.328055600000006,-120.18222220000001
10/11/2003 07:00,fort knox,ky,,fireball,3,i saw a large fireball falling to earth in the early morning hours on  Oct.11&#442003 in Kentucky,37.916104,-85.95624699999999
10/11/2003 11:32,newaygo,mi,us,circle,40,Two fuzzy disks chaseing each other.,43.4197222,-85.8
10/11/2003 13:00,nebraska (above?&#44 or above south dakota),ne,,cigar,2,rather large cigar shaped object photographed from airplane window,41.492537,-99.901813
10/11/2003 19:05,placerville,ca,us,light,600,Unverified pair of bold star lights diminishing in perfect unison.,38.7297222,-120.7975
10/11/2003 20:00,frederick,co,us,unknown,10,Large flash outside the house rattling the windows with a low hum.,40.099166700000005,-104.93666670000002
10/11/2003 20:30,bloomington,in,us,disk,180,Saucer shaped craft with kaleidoscope lights.,39.1652778,-86.52638890000001
10/11/2003 22:40,independence,mo,us,chevron,600,UFO with black exhaust sighted in Independence&#44 MO Oct. 11&#44 2003,39.091111100000006,-94.4152778
10/11/2004 01:00,honolulu,hi,us,triangle,3,3 trangular UFOs were spotted in a triangle formation for 3 seconds.,21.3069444,-157.8583333
10/11/2004 02:37,los angeles,ca,us,rectangle,20,Large&#44 rectangular&#44 pale green-blue object spotted at approx. 2:37 am&#44 10/11/04&#44 moving east over the San Fernando Valley.,34.0522222,-118.2427778
10/11/2004 03:40,dallas,or,us,light,20,Very intense light&#44 shone through covered windows&#44 absolutely no sound&#44 felt presence before observing.,44.919444399999996,-123.31583329999998
10/11/2004 04:15,pitman,nj,us,other,7200,star-like light that bobbled side to side and up and down  ((NUFORC Note:  We suspect Venus.  PD)),39.7327778,-75.1319444
10/11/2004 05:00,san jose,ca,us,light,15,Light traveling at very high rate of speed across the morning sky.,37.3394444,-121.8938889
10/11/2004 10:00,nuevo laredo (mexico),,,light,1200,While I was driving I stopped at a traffic light and when I turned to wait for the green light&#44 I saw 11 bright lights in the sky,27.477936,-99.549573
10/11/2004 11:00,salinas,ca,us,formation,2700,Large formation of UFO&#39s seen over south Salinas&#44 CA on Oct. 11&#44 2004&#44 in broad daylight.,36.6777778,-121.65444440000002
10/11/2004 14:00,arroyo grande,ca,us,circle,60,observed Angel Hair type UFO,35.1186111,-120.58972220000001
10/11/2004 18:00,fresno,ca,us,rectangle,120,Rectangle over Fresno&#44 California.,36.7477778,-119.77138889999999
10/11/2004 19:00,strongsvilles,oh,,light,5,neon green light or object traveled eastward then fell out of view&#44 no aircraft nearby,41.314496999999996,-81.83569
10/11/2004 22:29,laredo,tx,us,fireball,1351,Large flaming tail and eratic movement - sudden change of direction,27.506111100000002,-99.5072222
10/11/2004 22:30,eastsound,wa,us,sphere,0,like a bright star&#44 only spins  slowly and has white and red (sometimes orange and green) lights  ((NUFORC Note:  Twinkling star??  PD),48.69694439999999,-122.90416670000002
10/11/2004 23:00,lake worth,fl,us,formation,7200,Multiple formations viewed by three witnesses.,26.615555600000004,-80.05722220000001
10/11/2004 23:15,williamsville,ny,us,light,540,Hovering light seen over Williamsville&#44 NY,42.96388889999999,-78.7380556
10/11/2005 00:00,cannock (uk/england),,gb,formation,180,Formation spotted,52.683333,-2.016667
10/11/2005 00:00,holiday,fl,us,light,180,light dancing over holliday florda,28.1875,-82.7397222
10/11/2005 03:00,eagan,mn,us,circle,7200,((NUFORC Note:  Possible star.  PD))  Bright colorfull glowing ball.,44.8041667,-93.16666670000001
10/11/2005 03:20,siloam sprngs,ar,,circle,180,Round light appeared to be surrounded by fog&#44 approaced from south neaded NNE&#44 changed speed&#44 then turned sharply west.,36.188137,-94.54049599999999
10/11/2005 16:00,canyonlands np,ut,,formation,600,((NUFORC Note:  Possible satellites.  PD))  Needles Outpost: I was admiring the stars I saw 3 moving objects&#44 all in a row.,39.32098,-111.093731
10/11/2005 16:36,lake point,ut,us,light,720,Lights near  Lake Point/Grantsville&#44 UT,40.680833299999996,-112.26222220000001
10/11/2005 18:33,pearl harbor,hi,,light,2,Fast moving light in the sky South of Peal Harbor,21.344507,-157.97489099999999
10/11/2005 18:45,peoria,az,us,light,5400,Formation of amber lights over Tolleson&#44 AZ that flickered off and on for about 90 minutes.,33.580555600000004,-112.23666670000001
10/11/2005 19:00,buckeye,az,us,formation,1800,two different multi-light configurations that changed position and appeared low in the sky south of Buckeye&#44 Arizona,33.3702778,-112.58305559999998
10/11/2005 19:00,casa grande,az,us,light,1800,amber lights over I-10 near Casa Grande Az.,32.8794444,-111.75666670000001
10/11/2005 19:30,tempe,az,us,triangle,3,3 light triangle stayed perfectly still and then shot off fter 3 seconds of stillness.,33.4147222,-111.9086111
10/11/2005 19:45,mobile,al,us,light,1800,((NUFORC Note:  Possible sighting of Mars.  PD))  Massive brilliant white light that just hung in the Southern sky.,30.6941667,-88.0430556
10/11/2005 21:00,little ferry,nj,us,oval,300,oval sahped  the whole thing was lit up with a very bright white light&#44 huvered over the trees&#44disappeared,40.8527778,-74.0425
10/11/2005 21:00,wall lake,ia,us,light,10,strange shit in the sky in sac county iowa.,42.271111100000006,-95.0927778
10/11/2005 21:50,rotherham (south yorkshire) (uk/england),,gb,oval,3600,A light it was a oval shape duration was 1hr,53.433333,-1.35
10/11/2006 01:25,nashville,tn,us,disk,13,Circle shaped solid white object flying through clouds.,36.165833299999996,-86.7844444
10/11/2006 02:00,calumet city,in,,circle,420,i work as a security guard at the calume t city airport. i have grave yard shift fom 11:pm to 7 am. i was doing my round checking the p,41.615590999999995,-87.529487
10/11/2006 05:40,york,me,,disk,30,Illuminated but not shiny disc  with three large pulsing lights underside&#44 white to red&#44 following path along the Atlantic coastline.,43.161747999999996,-70.648258
10/11/2006 09:00,littlerock,ar,,oval,600,The first object was shaped like an oval and appeared coming out the southwest traveling in an eastern direction this object appeared t,34.746481,-92.28959499999999
10/11/2006 11:29,lynnwood,wa,us,unknown,120,I noticed a very white tail behind an object traveling north in the southern sky. It appeared to be very high and far away. The object,47.8211111,-122.3138889
10/11/2006 19:00,monterey park,ca,us,fireball,120,huge ball of fire hanging in the sky,34.0625,-118.12194440000002
10/11/2006 19:30,two harbors,mn,us,light,600,Northern Lights ?? Right&#33,47.0227778,-91.6705556
10/11/2006 20:45,pensacola,fl,us,diamond,3600,Six orange glowing diamond shaped objects in two separate clusters due east of Pensacola,30.421111100000005,-87.2169444
10/11/2006 21:00,milton,fl,us,light,900,THE LIGHTS KEPT FLASHING AND MOVING AT VERY HIGH SPEEDS SHOWING UP THEN WOULD BE GONE IN AN INSTANT THEN FLYING SIDE WAYS UNLIKE ANY PL,30.6322222,-87.0397222
10/11/2006 21:20,kidlington (uk/england),,gb,formation,5,Shape of object wasn&#39t wisible. Light spots shine in triangular shape,51.816666999999995,-1.283333
10/11/2006 21:32,la crescenta,ca,us,circle,3,White light imploded,34.224166700000005,-118.23916670000001
10/11/2006 22:00,enid,ok,us,light,60,Fast moving ball of light speeds across the sky.,36.3955556,-97.8780556
10/11/2006 23:00,pampa,tx,us,triangle,60,Two triangular objects&#44 lit up by three main lights and other lights in between&#44 moving simotaniously to the East over Pampa Tx.,35.53611110000001,-100.9594444
10/11/2006 24:00,rome,ny,us,oval,120,I was walking from the garage to the house&#44I happen to look up at a plane I hurd over head&#44 a small private plane. There&#39s a small air,43.2127778,-75.45611109999999
10/11/2007 04:40,melbourne,ky,us,oval,360,flashing lights spotted near Ohio River,39.0297222,-84.3663889
10/11/2007 10:10,carlton,or,us,cylinder,900,it was not anything thath we have,45.294444399999996,-123.17527779999999
10/11/2007 16:00,clackamas,or,us,circle,900,Silver circular or sphere-like object flying parallel to I-205 in the Gladstone/Clackamas area.,45.4077778,-122.56916670000001
10/11/2007 19:28,brassall (australia),,,unknown,3600,Accidentally photographed very strange UFO,-27.597553,152.7455
10/11/2007 19:50,seattle,wa,us,triangle,10,I saw two orange colored lights&#44 close together but moving independently across the sky&#44 at high rate of speed. Then they disappeared.,47.6063889,-122.33083329999998
10/11/2007 20:00,frankfort,il,us,sphere,0,White Ghost Like Figures Hazey Very Low In The Sky Seen In Our Back Yard  Frankfort&#44 IL,41.4958333,-87.84861109999999
10/11/2007 20:15,tega cay,sc,us,light,1800,Bright white light and then 2 blinking red lights in Western Sky,35.0241667,-81.0280556
10/11/2007 20:30,gulf shores,al,us,disk,1800,Brightly lighted Object appeared total of 6-8 times in different locations in night sky over ocean for few seconds and disappeared,30.245833299999997,-87.7008333
10/11/2007 23:00,london (uk/england),,gb,unknown,300,Yellow lights in formation,51.514125,-0.093689
10/11/2008 00:00,klagenfurt (austria),,,chevron,60,It came from the direction of the city&#44 when I stood on a hill in total darkness in the countryside. It was moving strangely&#44  not stra,46.62794,14.30899
10/11/2008 02:35,monrovia,ca,us,unknown,0,Above my home a large/huge dark unshaped figuer&#44 blending in as a star passing threw from east to west in 15min,34.148055600000006,-117.99805559999999
10/11/2008 04:30,brownsville,tx,us,disk,3,I saw a ufo for 3 seconds by my house.,25.9013889,-97.49722220000001
10/11/2008 06:00,concord,ca,us,light,180,Very small lights&#44 very high. moved at great speed and cganged direction. Not aircraft.,37.978055600000005,-122.03
10/11/2008 13:00,salisbury,nc,us,sphere,20,7 UNKOWN AIRBORN OBJECT&#39S SEEN OVER  SALISBURY NC..SEARCH GRID WITNESSED&#33&#33..,35.6708333,-80.4744444
10/11/2008 17:30,bellmere (australia),,,cylinder,240,Very large long white cylinder object traveling high up and smoothly above storm clouds.,-27.088078999999997,152.928057
10/11/2008 19:00,bridgeport,ct,us,circle,7200,I saw 6 glowing orbs lining up in different formations witin a 2 hour period over Long Island Sound.,41.1669444,-73.20527779999999
10/11/2008 19:00,dover,md,us,sphere,7200,freinds and familes see UFO,39.512222200000004,-76.7697222
10/11/2008 19:00,riverside,ca,us,light,60,Bright light moving from NW to SE,33.9533333,-117.39527779999999
10/11/2008 19:30,naples,fl,us,triangle,30,A dark flying V.,26.1416667,-81795
10/11/2008 20:30,centerville,tx,us,light,900,MYSTERIOUS LIGHTS IN THE TEXAS SKY.,31.2577778,-95.9780556
10/11/2008 20:30,villa park/lombard,il,,changing,300,Several Orange Lights Over Vila Park Lomabrd Areas 10-11-2008,41.885738,-87.969213
10/11/2008 22:20,albuquerque,nm,us,fireball,120,Vehicle out of southern sky thought to be shooting star hovers over city.,35.084444399999995,-106.65055559999999
10/11/2008 22:30,los angeles,ca,us,triangle,30,Large Triangle sighted over L.A,34.0522222,-118.2427778
10/11/2009 00:00,sedro woolley,wa,,unknown,10,Unusaul flight charactoristics,48.503890000000006,-122.23611000000001
10/11/2009 02:45,deer park,ny,us,other,10800,2 Bright Orange lights in the sky moving up&#44 down&#44 and circular motion with shooting streaking trail -looked like shooting star,40.7616667,-73.3297222
10/11/2009 04:00,crisfield,md,us,light,600,A bright light moving across the sky getting closer stopped on a dime got brighter and took off with no sounds at all,37.9833333,-75.85416670000001
10/11/2009 04:45,st. john&#39s (canada),nf,ca,flash,5,Bending streak of white light over suburban area.,47.55,-52.666667000000004
10/11/2009 09:45,plymouth,mi,us,triangle,20,I was standing on a sidewalk near salem high school where i saw a triangular shaped craft slowly gliding right over my head. my mom jus,42.3713889,-83.47027779999999
10/11/2009 12:30,glendale,az,us,egg,1200,2 eggshaped objects over Glendale Az. near stadium.,33.538611100000004,-112.1852778
10/11/2009 18:00,louisville,ky,us,disk,120,strange object photographed over Louisville&#44 Kentucky October 11&#44 2009,38.2541667,-85.7594444
10/11/2009 18:00,rowlett,tx,us,disk,0,Disc shaped object caught on cell phone camera in Rowlett Texas.,32.9027778,-96.56361109999999
10/11/2009 18:05,west palm beach,fl,us,oval,3,At around 6pm (18:00 hours) I was outside in the backyard of my home with my Canon EOS Rebel XT digital camera taking photographs of na,26.705277799999998,-80.0366667
10/11/2009 19:00,north smithfield,ri,us,circle,15,I was watching the sky like I always do on a clear night because you can always see what appear to be stars riding along the night sky.,41.966666700000005,-71.55
10/11/2009 19:50,putnamville,in,us,flash,540,Two Hovering Aircraft Spotted Around a Strange Haze,39.5741667,-86.86527779999999
10/11/2009 21:55,madison,wi,us,light,180,Amber orange light moving very slowly&#44 dimming out&#44 shooting away.,43.0730556,-89.4011111
10/11/2010 00:30,redondo beach,ca,us,other,1200,three lights that changed colors rapidly suspended over the ocean that increased and decreased in intensity often,33.849166700000005,-118.3875
10/11/2010 04:00,moxee,wa,,rectangle,1,bow shockwave with rectangle craft it was hyperfast,46.553733,-120.38316200000001
10/11/2010 04:50,albany,ny,us,oval,120,Oval metallic object,42.6525,-73.7566667
10/11/2010 06:20,west palm beach,fl,us,sphere,2400,Electrical Sphere shape morning sky over Palm Beach Florida,26.705277799999998,-80.0366667
10/11/2010 12:30,orangevale,ca,us,changing,2700,slowmoveing  fire ball in sky,38.678611100000005,-121.2247222
10/11/2010 19:40,cottage grove,mn,us,light,240,Craft with two white lights in Minneapolis Approach Pattern that moved down and not forward then disappered behind the tree line.,44.8277778,-92.9436111
10/11/2010 20:50,glendora,ca,us,circle,60,I was north on a mountain facing south with my friend. We were star gazing and I looked up in the sky at about a 45 degree angle and sa,34.1361111,-117.86444440000001
10/11/2010 20:53,ramona,ca,us,triangle,5,We believed this object to be an airplane on fire,33.0416667,-116.8672222
10/11/2010 21:35,union city,ca,us,other,15,Opposing lights of amber that sliently crossed low in the sky.,37.595833299999995,-122.01805559999998
10/11/2010 23:20,clinton township,mi,,fireball,15,Fireball lifted into the sky and dissipated into a cloud.,42.586888,-82.919551
10/11/2011 03:15,omaha,il,us,chevron,120,I noticed the craft as it had just passed over Rt 1. i brought my semi to a stop and shut down the engine. the craft was very large&#44as,37.8902778,-88.3030556
10/11/2011 08:40,henderson,nv,us,other,180,UFO Report:  Date: October 11th&#44 2011 Location: Las Vegas&#44 NV (near Henderson&#44 NV) Time: 8:40 A.M. Near Las Vegas Nevada&#44 I was out,36.0397222,-114.9811111
10/11/2011 15:00,cedar city,ut,us,light,8,Bright&#44 white&#44 star-like UFO over Cedar City at 1500 on sunny day.,37.6775,-113.0611111
10/11/2011 19:40,des moines,ia,us,light,90,An unexplained&#44 unidentified flying object.,41.60055560000001,-93.60888890000001
10/11/2011 19:42,new bedford,ma,us,circle,1800,At least 25 orange and red fireballs fly over New Bedford&#44 MA&#44 USA,41.6361111,-70.93472220000001
10/11/2011 21:00,monroe,ct,us,,300,Orange Light Formation Over Monroe&#44 CT 10/11/11--Hangs in Sky then Flys Away.,41.3325,-73.20777779999999
10/11/2011 21:10,holden beach,nc,us,circle,30,6 orange balls of light over the Atlantic ocean.,33.9133333,-78.3041667
10/11/2011 23:23,harrodsburg,ky,us,unknown,480,Unknown lights.,37.762222200000004,-84.8433333
10/11/2012 01:00,worcester,ma,us,unknown,4,Big extremely bright white light hovering in sky,42.2625,-71.80277779999999
10/11/2012 02:45,watchung (was my perspective),nj,us,sphere,3600,Orange sphere moving in unbeliveable ways&#44&#44&#44another green spehere near by with rays emerging form it.  Bizarre,40.6377778,-74.45138890000001
10/11/2012 04:00,tewksbury,ma,us,light,2,Huge white streaking object moving high rate of speeds in night sky,42.610555600000005,-71.23472220000001
10/11/2012 04:05,las vegas; enroute to (15 n freeway),nv,,disk,0,UFO on 15 N freeway,38.802609999999994,-116.419389
10/11/2012 07:00,bablyon,ny,,disk,120,Saw a object that was very odd in the sky over the ocean off fire island inlet&#33&#33,40.695655,-73.325675
10/11/2012 08:00,angola,in,us,cigar,7200,4 objects metalic reflecting from rising sun in the east&#44 then witnessed what looked to be 7 more objects in a straight line. Then hear,41.6347222,-84.9994444
10/11/2012 14:06,yakima,wa,us,unknown,0,Far off object moving east to west in north yakima county between the yakima training center and the yakima river rec area.,46.6022222,-120.5047222
10/11/2012 19:30,arbutus,md,us,light,300,Moving star and strange man,39.2544444,-76.7002778
10/11/2012 19:30,forty fort,pa,us,fireball,720,Slow moving bright light,41.2788889,-75.87861109999999
10/11/2012 19:45,saratoga springs,ny,us,circle,300,Brightly lit object&#44 twice the size of a planet&#44  traversed the night sky&#44 dimmed&#44 and disappeared from view.((NUFORC Note:  ISS? PD)),43.0830556,-73785
10/11/2012 20:00,nanticoke,pa,us,diamond,60,UFO sighted over Nanticoke PA,41.2052778,-76.00527779999999
10/11/2012 20:30,las cruces,nm,us,fireball,120,4 fireballs side by side,32.3122222,-106.7777778
10/11/2012 20:42,ravensdale,wa,us,triangle,10,Driving on kent kangley road I observed a triangle arrangement of lights hovering about 100 feet off the ground.  The lights were multi,47.3525,-121.9825
10/11/2012 21:00,levittown,pa,us,diamond,60,About 9:00 pm&#44 Oct. 11&#44 2012&#44 driving home I first heard strange high-pitched siren-like sound&#44 and rolled down my window to hear what,40155,-74.8291667
10/11/2012 21:01,phoenix,az,us,sphere,30,10/11/12  Phoenix&#44 AZ  Sphere  30 sec   Yellowish-orange flashing sphere seen by myself        10/12/12,33.4483333,-112.07333329999999
10/11/2012 22:15,blue island,il,us,circle,45,Red circular object surrounded by yellow glow flying w/no sound quickly coming out of east turning southbound,41.6572222,-87.68
10/11/2012 24:00,truth or consequences,nm,us,unknown,0,Fast moving red ball and then flashing light,33.1283333,-107.2522222
10/11/2013 01:00,saginaw,mi,us,chevron,4,10 or so dimly lit white lights in a large arrow shape formation moving at high rate of speed.,43.419444399999996,-83.9508333
10/11/2013 03:00,hamilton (canada),on,ca,cylinder,3600,Enlarged still frame pics of the video show strage shapes and strange colors.,43.25,-79.833333
10/11/2013 06:13,ankeny,ia,us,circle,120,Two slow moving star-like objects suddenly accelerated to light speed heading towards Jupiter,41.7297222,-93.6055556
10/11/2013 09:05,palm beach gardens,fl,us,light,15,Five orange flying objects in the nights sky and no sound.,26.823055600000004,-80.13888890000001
10/11/2013 16:01,pickering (canada),on,ca,circle,300,Glowing blue sphere in Ontario&#44 Canada.,43.866667,-79.033333
10/11/2013 16:35,kalamazoo,mi,us,fireball,600,Massive caravan of a hundred red/orange fireballs moving from west to east at a steady rate in formation for at least ten minutes.,42.2916667,-85.58722220000001
10/11/2013 19:00,lawrence,ks,us,unknown,240,Silent blue and white lights of craft object change color&#44 approach myself and boyfriend&#44 before changing into buzzing&#44 everyday plane,38.9716667,-95235
10/11/2013 19:00,rittman,oh,us,light,0,7 streaks of light in the sky.  ((NUFORC Note:  Photo shows six contrails in the evening sky.  PD)),40.978055600000005,-81.7822222
10/11/2013 19:20,north cincinnati,oh,,fireball,600,Some sort of fireball came down from the sky very rapidly soon to turn into 3 flying disc that where lit up (clearly not stars) they se,39.103118,-84.51201999999999
10/11/2013 19:33,winterhaven,ca,us,light,0,Saw up to 5 orbs in the sky at about 1900 hours. Went on for a while. 3 in the formation of a triangle and one quite a distance from th,32.7394444,-114.6338889
10/11/2013 19:50,essex junction,vt,us,light,60,4 or 5 Orange Lights in Vermont Sky,44.49055560000001,-73.11138890000001
10/11/2013 20:00,beaverdam (canada),nb,ca,changing,0,Approx. 6 hours,54.203610999999995,-110.30666699999999
10/11/2013 20:00,cincinnati,oh,us,circle,300,Glowing Orange Fireball/Lights Seen at Turpin HS Football Game.,39.161944399999996,-84.4569444
10/11/2013 20:00,cincinnati,oh,us,fireball,240,Cincinnati fire ball in the sky?,39.161944399999996,-84.4569444
10/11/2013 20:00,naples,fl,us,light,7200,Circle of Different color flashing light over gulf in naples,26.1416667,-81795
10/11/2013 20:00,saginaw,mi,us,unknown,0,4 orange bright lights close together that  can speed up and slow down quickly&#44 our aircraft cannot.,43.419444399999996,-83.9508333
10/11/2013 20:15,bonaie,ga,,light,300,15-25 red/orange lights moving at a low altitude in the same pattern with no sound at all.,32.543889,-83.596111
10/11/2013 20:15,cincinnati,oh,us,fireball,60,3 fireball type objects close to downtown Cincinnati.,39.161944399999996,-84.4569444
10/11/2013 20:15,union,ky,us,fireball,300,amber fireball descending&#44splits into 3 objects&#44stops&#44they hover above ground with erratic movements,38.9458333,-84.6805556
10/11/2013 20:20,hubbardston,ma,us,fireball,60,4 orange orbs zig zgging across the sky.  Quick movements forward and aft and side to side.,42.47361110000001,-72.0066667
10/11/2013 20:45,covington,ga,us,light,300,Saw a bunch of low-altitude lights drifting overhead.,33.5966667,-83.86027779999999
10/11/2013 21:00,drexel,oh,us,sphere,180,Blue white streak in sky&#44 2 orange orbs splitting. seems like it landed.,39.7463889,-84.2866667
10/11/2013 21:00,fayetteville,ny,us,chevron,90,Brilliant slow moving light in fayetteville ny.,43.0297222,-76.0047222
10/11/2013 22:00,jupiter,fl,us,light,900,Groups of glowing orange objects moving randomly from east to west over Jupiter Inlet area at approximately 10:00 pm Oct 11&#44 2013.,26.933888899999996,-80.0944444
10/11/2013 22:00,melbourne,fl,us,sphere,300,At or around 22:00 hours my Mother called me outside to look at something My Father and I walked out the front door and observed a larg,28.0833333,-80.6083333
10/11/2013 22:08,dresser,wi,us,sphere,60,Large Orange Sphere over Polk county Wisconsin.,45.35611110000001,-92.6333333
10/11/2013 22:10,lombard,il,us,formation,60,5-8 orange lights over suburban Chicago,41.88,-88.0077778
10/11/2013 22:18,windsor (canada),on,ca,light,300,5 orange lights seen in sky over windsor.,45.583333,-72.0
10/11/2013 22:53,shelby township,mi,,changing,0,Strange lights&#44 Michigan night sky 10:53 PM.,42.670782,-83.032993
10/11/2013 23:00,north canton,oh,us,fireball,10,Fireball over the Strip.,40.8758333,-81.4025
10/11/2013 23:15,pinckney,mi,us,fireball,2,Large orange fireball observed over Hell&#44 Michigan&#44 traveling from due south to due north directly overhead.,42.4566667,-83.9463889
10/1/1950 11:00,pikeville,ky,us,disk,600,SEVENTY SOME  FLYING DISK OBSERVED IN  1950,37.4791667,-82.51888890000001
10/1/1952 03:30,fukuoka (japan),,,disk,1200,UFO seen by multiple U. S. military personnel; F-86 intercept.,33.590354999999995,130.401716
10/1/1952 12:00,kansas city,mo,us,disk,90,1952 daylight sighting of multiple discs in formation,39.0997222,-94.5783333
10/1/1954 19:00,flatwoods,wv,us,circle,60,I saw the craft go across the horizon.  It appeared to be on fire&#44 I first thought it was a plane going down.  It landed near a farm.,38.7230556,-80.65
10/1/1955 22:00,mono lake (area),ca,,circle,5,NO KNOWN AIRCRAFT (1955 and maybe today) COULD MAKE SUCH A SPEEDY 360 DEGREE CIRCLE MANUVER&#44 WITH NO SOUND &#33,38.007059000000005,-119.01225900000001
10/1/1956 19:00,newport,nh,us,rectangle,300,Disk with glass center section&#44 and flames behind the glass,43.3652778,-72.17388890000001
10/1/1957 16:00,nelchina (near),ak,us,unknown,180,This incident occurred about October of 1956 or &#8216;57. At the time&#44 I was Assistant station manager for a major airline in Anchorage as,61.9919444,-146.76861110000002
10/1/1957 20:30,martelle,ia,us,cigar,0,I Fly and have been in Viet Nam and around the world and have never seen anything like it again.,42.021666700000004,-91.35972220000001
10/1/1957 21:00,paterson,nj,us,disk,10,Formation of approximately 8 light gray metallic disks silently crossing the night sky around October 1957 in northern NJ,40.9166667,-74.17222220000001
10/1/1957 22:00,northeast cape afs,ak,,,900,Radar sighting and filming,70.292489,-161.903334
10/1/1959 16:00,new york city (manhattan),ny,us,other,0,A round object the shape of a bubble hovered by a window of a four or five story building. The object was silent. Some 20 feet os so ov,40.7141667,-74.0063889
10/1/1959 19:00,jacksonville,il,us,unknown,60,Late 1959&#44 bright lights from a hovering object of unknown shape making a zed-zid zed-zid electrical sound.,39.7338889,-90.22888890000002
10/1/1959 20:45,duluth,wi,,,1200,Single saucer shaped craft observed from Duluth Mn. skies over Lake Superior-first  stationary&#44 then NW movement.,0.0,0.0
10/1/1961 03:00,toledo,oh,us,sphere,180,Observed dull silver metallic sphere hovering outside of bedroom window as a child.  Had direct communication with sphere.,41.663888899999996,-83.5552778
10/1/1961 03:30,tulsa,ok,us,disk,120,October&#44 1961&#44 Tulsa Oklahoma: low altitude&#44 slow&#44 disk object(s); high speed turns&#44 v. high accelleration.,36.1538889,-95.9925
10/1/1961 19:00,nashville,tn,us,disk,1800,In October 1961&#44 a silvery flattened disk hovered motionless over a local school fair for more than 30 minutes.,36.165833299999996,-86.7844444
10/1/1961 22:00,graham,nc,us,triangle,30,3 flat&#44 large  white lights in delta pattern&#44 no sound&#44 flying at tree-top level at 35-40 mph,36.0688889,-79.4008333
10/1/1965 02:00,desert,nm,,disk,900,While traveling at night we saw what appeared to be a glowing dish in the distance about 600 yards away and 200 ft  high. The car light,0.0,0.0
10/1/1965 06:40,biloxi,ms,us,other,900,Cloud&#44 hovering then moving at right angles with pulsating light coming from within,30.3958333,-88.8852778
10/1/1965 14:00,colonial heights,va,us,sphere,120,Saw sphere ping-ponging up and down and side to side in blue sky.,37.243888899999995,-77.4105556
10/1/1965 21:00,dushore,pa,us,disk,300,It could move very slowly or very quickly but either way it moved without making any noise.,41.5241667,-76.4011111
10/1/1966 19:00,edmonton (30 mi. east of&#44 hwy 16 east) (canada),ab,ca,diamond,300,Unusual ights in distance. Approached until object overhead as wide as road and ditch. Bright lights&#44 Turned head to find object in hor,53.55,-113.5
10/1/1966 20:00,buffalo,ny,us,light,240,One of the bright stars moved north&#44 curved upward&#44 flew in a wide arc&#44 then accelerated up into the cosmos.,42.8863889,-78.87861109999999
10/1/1966 22:00,anacortes,wa,us,light,1200,20 miles driving toward Anacortes&#44a friend and I were listening to a radio station in Anacortes. The DJ said he had recieved calls abou,48.5127778,-122.6113889
10/1/1966 22:30,anamosa,ia,us,unknown,60,large quiet  craft&#44 covered with blackness&#44 and &quot;stars&quot; to not be noticed&#44 moving slowly southwest to north north east.,42.1083333,-91285
10/1/1966 23:00,corvallis,or,us,disk,120,Saucer with no sound flew 100 feet above ground&#44 changed direction then left atmosphere in a split second.,44.5647222,-123.26083329999999
10/1/1967 02:00,chaffee,ny,us,sphere,600,34 years ago and still &quot; seeking the truth&quot;,42.5680556,-78.47916670000001
10/1/1967 13:00,greenville,il,us,circle,30,My son and I went to a ballpark close by to play- we were the only ones there&#44 I happened to look up and right over us&#44 were 3 round uf,38.8922222,-89.41305559999999
10/1/1967 19:00,hudson&#39s hope (canada),bc,,sphere,120,Large round silver UFO in Peace River Valley 1966-67,56.031639,-121.905722
10/1/1967 20:00,minneapolis,mn,us,disk,10,In October 1967&#44 2 Disks sited heading north over Minneapolis MN.,44.98,-93.26361109999999
10/1/1968 00:00,boston,ma,us,cigar,1200,as i woke up in the early morning a bright redish orange light bathed the living room&#44at first i thought it was a fire but the light wa,42.3583333,-71.0602778
10/1/1968 15:00,lima (peru),,,circle,300,It hovered over the park for several minutes then suddenly took off at incredible speed.,0.0,0.0
10/1/1968 20:00,kennebunkport,me,us,circle,600,While at the boathouse at St.Athonys one night we noticed what at first we thought was a bright star getting larger.It seemed to dart a,43.3616667,-70.4772222
10/1/1969 16:00,san francisco,ca,us,oval,600,It was in the afternoon just before sunset at 20 Steiner St SF CA I saw above me and there was one other person who was with me on the,37775,-122.41833329999999
10/1/1970 00:00,viet nam,,,light,600,U.F.O. in Vietnam    1970,14.058323999999999,108.277199
10/1/1970 01:00,kingston (canada),on,ca,sphere,180,Sept. 1970. Kingston Ontario. Spherical grren orb. 3 minute duration. Bright green orb travelled slowly and then took off extremely qui,44.233333,-76.483333
10/1/1970 16:00,new york city (brooklyn),ny,us,disk,180,Hoovering disk like object by Father and Son&#44 Brookyln&#44 NY 1970,40.7141667,-74.0063889
10/1/1970 17:30,bentonville,ar,us,other,14400,Hoseshoe shaped,36.3727778,-94.20861109999998
10/1/1970 19:00,summit lake indian reservation,nv,,oval,1500,ball of light&#44 turned into a doughnut shape&#44 assention&#44 stream&#44 4 witnesses&#44seen from higher elevation.,41.524898,-119.05102
10/1/1970 19:00,tampa,fl,us,other,900,36 year old reports an object he saw with his mother 31 years ago.,27.947222200000002,-82.45861109999998
10/1/1970 21:00,new york city (brooklyn),ny,us,disk,300,Saucer/disklike craft&#44 with multi-colored lights sighted in Bayridge Brooklyn in 1970 with many eyewitnesses.,40.7141667,-74.0063889
10/1/1970 23:00,indian ocean (usn vessel),,,light,240,Bright object seemingly appeared out of nowhere in the Indian Ocean&#44 miles from any land.,-33.137551,81.826172
10/1/1971 22:00,pasadena,ca,us,disk,180,Powerless over UFO sighting.,34.1477778,-118.1436111
10/1/1972 01:00,potwin,ks,us,unknown,10800,Iwas abducted around age 7 or 8. They came will I WAS Asleep. they look into my room from the hall. They took me to a room. I think the,37.938888899999995,-97.0194444
10/1/1972 04:00,denton,tx,us,unknown,600,Slow moving object splits and one part sped away while the bigger part slowly moved in the opposite direction.,33.214722200000004,-97.1327778
10/1/1972 20:00,mosheim,tx,us,disk,1800,Classic saucer shape seen in the early seventies.,31.626111100000003,-97.5997222
10/1/1972 23:00,monroe,wa,us,rectangle,900,STOP AND GO THE SIZE OF A LARG CAR WITH NO WINDOWS,47.8555556,-121.9697222
10/1/1972 23:00,pickens/pumpkintown,sc,,chevron,1800,Slowly moving boomerang shape with four bluish-white lights on each leading edge; made a humming sound.,35.002778,-82.652778
10/1/1972 24:00,sweet home,or,us,unknown,0,Ligthning coming out of a cloud hovering&#44 waves of clouds come out an going backin&#44 no sound look at that?,44.3977778,-122735
10/1/1973 01:00,montezuma,in,us,sphere,900,We saw a large glowing sphere that looked like the moon&#44 but was obviously not since it was very close to us and could manuver.,39.792777799999996,-87.3708333
10/1/1973 15:00,virginia beach,va,us,disk,1800,Group of  friends an I  follow a UFO on bicycles&#44 I have a sighting alone about a week later.,36.8527778,-75.9783333
10/1/1973 20:00,bloomington,in,us,light,1200,Three large bright white craft  interacting &amp; manuevering rapidly accross a quadrant of night sky.,39.1652778,-86.52638890000001
10/1/1973 20:30,north st. paul,mn,,triangle,120,Large triangular space craft sighted above North Senior High School&#39 football field&#44 in North St. Paul&#44 MN in early October 1&#44 1973,45.012465999999996,-92.991883
10/1/1973 21:00,roseburg,or,us,cylinder,7200,We were on the outskirts of town&#44 just passing the sewage treatment plant&#44 when this object with blinding white light enveloped the car,43.216666700000005,-123.34055559999999
10/1/1973 21:30,beatty,nv,us,disk,7200,Lights in the sky and lost time.,36.9086111,-116.75833329999999
10/1/1973 21:30,hixson,tn,us,oval,37800,Oval&#44 brilliant lights&#44 red glow&#44 windows&#44 metallic&#44 no sound; After we lost sight of it and went to find it&#44 it showed itself to us.,35.140555600000006,-85.2327778
10/1/1973 22:45,valley city,oh,us,disk,300,It was a star shaped object travelling south that stopped&#44 changed colors&#44 and sped off dissapearing in the night sky.,41.237777799999996,-81.93166670000001
10/1/1974 01:00,denton,tx,us,unknown,600,I was walking home from the Library at North Texas State University after the Library closed.  From a distance&#44 I saw a large red glowi,33.214722200000004,-97.1327778
10/1/1974 18:00,weirton,wv,us,sphere,240,Upon coming home one evening in the early spring&#44 I saw in the eastern horizon three circular objects that looked like three full mooon,40.4188889,-80.58972220000001
10/1/1974 20:00,ankara (turkey),,,changing,300,A bright&#44 huge&#44 and shape-changing object&#44 exploded into numerous smaller spherical objects which moved in formation.,39.920770000000005,32.85411
10/1/1974 20:00,deerwood,mn,us,unknown,2,Sighting 3  An incidence occurred in mid-October&#44 1974. I picked my son up from wrestling practice in the evening after school. We live,46.47361110000001,-93.8986111
10/1/1974 21:00,chester,nj,us,light,600,Three bright star like objects moving across the night sky at the speed of light and stopping on a dime.,40.7841667,-74.69722220000001
10/1/1975 15:30,waterloo (belgium),,,sphere,180,Dull metallic 9-inch sphere follows perfectly linear path at 5-10 mph about 50 feet AGL.,0.0,0.0
10/1/1975 21:00,kincheloe air force base&#44 michigan,mi,,triangle,15,Shaped like the letter &quot;A&quot;&#44 flew directly over top of us at est 500 ft.,44.314844,-85.602364
10/1/1975 22:00,maricopa,az,us,changing,1200,Group of 4 Orange Objects land near hills just west of small town of Maricopa Arizona... Oct&#44 1975,33.0580556,-112.04694440000002
10/1/1976 07:00,hartville,oh,us,disk,120,A disk shaped flying object followed the path of our car just above the telephone lines.,40.9636111,-81.33138890000001
10/1/1976 19:00,fairport,ny,us,disk,600,Disk shaped UFO with continous changing color band in the middle.  Hoovered for a few minutes about 3 stories off the ground above a cr,43.09861110000001,-77.4422222
10/1/1976 21:00,thonotosassa,fl,us,disk,900,Mid-1970&#39s Thonotosassa&#44 Florida sighting at Stacey and Knights Griffin,28.061111100000005,-82.3025
10/1/1977 01:00,iselton,ca,,light,120,While fishing on the San Joaquin river on Twithchell Island Rd.&#44 at the mouth of the Molklomne river&#44 we observed 2-lights high in the,38.161861,-121.611621
10/1/1977 19:00,fountain valley,ca,us,other,360,My brother&#44 his friend and I saw an orange pyramid-shaped object in the sky about 25 yards away from us and about 25 yards up.  We were,33.709166700000004,-117.95277779999999
10/1/1977 22:00,ferndale,ca,us,other,60,Silhouette&#44 or dark object of craft appeared on moonless&#44 starlit-night&#44 backlit by glow straight overhead&#44 appeared to be approaching,40.5763889,-124.2627778
10/1/1978 00:00,windsor,nc,us,cone,300,saw while parking with girl friend. rising full moonin back ground. 25 ft up. f 50 yrs away over field. hovering. completly silent. one,35.9983333,-76.9463889
10/1/1978 20:00,lecompte,la,us,disk,300,I believe this object was either a test vehicle of some sort or it was not of this world.,31.094444399999997,-92.4002778
10/1/1978 23:15,francesville,in,us,cylinder,900,Object hovered for apprx. 5 min. then proceeded west - it was apprx. 300&#39 long 50-75&#39 wide 50-75&#39 high w/lights.,40.9852778,-86.8794444
10/1/1979 12:00,morden&#44 surrey (uk/england),,,circle,0,Spinning metallic object.,51.394943,-0.19446
10/1/1979 16:00,lomita,ca,us,disk,1200,Silent disk in afternoon daylight with over twenty witnesses,33.7922222,-118.31416670000002
10/1/1979 19:00,columbia,md,us,rectangle,120,Large&#44 low-flying&#44 slow moving&#44 silent black rectangle with no lights,39.2402778,-76.83972220000001
10/1/1979 21:00,buffalo,ny,us,light,10,Two bright fast-moving star-like objects with one traveling in a zig-zag motion.,42.8863889,-78.87861109999999
10/1/1979 21:00,olympia,wa,us,disk,7200,Dancing lights over Olympia,47.03805560000001,-122.89944440000001
